Created Date & Time,Request Type,Sub Request Type,Branch Name,Customer Comments,Comments Date & Time,Total Calls,Latitude_Comment,Longitude_Comment,closest_park,min_distance,ADDRESS,Latitude_Park,Longitude_Park,Keyword,Comment Address,Zone,comment_topics
1/1/21 20:43,Parks Inquiry,PathMntnc,Parks Maintenance,I just want to thank you for the fine job of cleaning the path at Stewart Russell Park. Kudos to all who made this happen! Happy New Year!,1/1/21 20:45,1.0,50.4582869,-104.6086978,STEWART RUSSELL PARK,0.0,1912 E 7TH AVE,50.4582869,-104.6086978,Thank you.,1912 E 7TH AVE,EAST,-1
1/1/21 21:16,Parks Inquiry,PathMntnc,Parks Maintenance,"Will there be some sidewalk snow removal done around Sereda Park, In Westerra....to the Cricket Pitch on Dewdney?",1/1/21 21:18,1.0,50.45385,-104.69538,SEREDA PARK,0.0,7955 BARLEY CRES,50.45385,-104.69538,"Safety, accessibility",7955   BARLEY CRES,WEST,64
1/1/21 21:20,Parks Inquiry,PathMntnc,Parks Maintenance,"Just a quick note to thank the city for cleaning the pathways in Wascana View Park. It is a great improvement for the last three years (I think it has been three). If you can, pass our thanks along to the operator who is doing the work - great job. Happy New Year - Reg and Gwenn Ronyk.",1/1/21 21:22,1.0,50.41765,-104.53488,WASCANA RIDGE PARK,0.3424865934729879,WASCANA RIDGE & WASCANA CIRCLE,50.420534,-104.5331829,Pathway cleanliness.,6056   WASCANA CRT,EAST,38
1/2/21 23:10,Parks Inquiry,ParksMnt,Parks Maintenance,"reference # 1919405692More than two years ago, the back of our yard in Philips park was excavated, and not returned to an even surface for walking. Its dangerous &amp; muddy. Children have fallen. There are many thistles. It just needs a leveling. Can't this be attended to? The passing of time is not making it better.",1/2/21 23:12,1.0,50.4273386,-104.5450375,PHILLIP PARK,0.0965982127241121,3256 MARGARET RD,50.4266099,-104.5457799,"Dangerous, Uneven",2531 E MARGARET PL,EAST,2
1/4/21 9:13,Parks Inquiry,PathMntnc,Parks Maintenance,Caller states the pathway in Selinger Park needs to be sanded. She states it is very icy.,1/4/21 9:14,1.0,50.4218226,-104.5566431,SELINGER PARK,0.3978267611299655,3674 SELINGER CRES,50.41914999999999,-104.55291,Icy pathway.,1803 E ASSINIBOINE AVE,EAST,138
1/4/21 9:13,Parks Inquiry,PathMntnc,Parks Maintenance,Caller states the pathway north of Truesdale needs to be sanded. She states it is very icy.,1/4/21 9:16,1.0,50.4353388,-104.5516207,GARDINER PARK,0.2601455857301429,424 UNIVERSITY PARK DR,50.4372573,-104.5537229,Icy pathway.,2206 E TRUESDALE DR,EAST,138
1/4/21 11:15,Parks Inquiry,PathMntnc,Parks Maintenance,resident is reporting pathways in carey park need to be cleared,1/4/21 11:18,1.0,50.4763745,-104.6393707,CAREY PARK,0.0,120 CAREY ST,50.4763745,-104.6393707," of large pieces of asphaltasphalt,",120   CAREY ST,NORTH,76
1/4/21 11:36,Parks Inquiry,ParksMnt,Parks Maintenance,"caller from sask energy, needs access in case of leaks wanting to get copies of keys for this park as they do not have currently - please contact",1/4/21 11:38,1.0,50.4672738,-104.5959123,EASTVIEW PARK,0.5206251146419768,945 BRODER ST,50.46427,-104.59027,"Access, keys",750 N WINNIPEG ST,CENTRAL,22
1/4/21 13:15,Parks Inquiry,PrkGrbEmpt,Parks Maintenance,Garbage containers at 3 entrances to Mayfield Park are overflowing with bags of dog excrement.,1/4/21 13:19,1.0,50.4294297,-104.5637883,MAYFIELD PARK,7.900874738066842e-13,112 MAYFIELD RD,50.42942970000001,-104.5637883,"dog excrement, overflowing garbage",112   MAYFIELD RD,EAST,53
1/4/21 19:11,Parks Inquiry,OutdrRink,Parks Maintenance,"The lights for the outdoor rink does not work when the button is pressed, please fix. Stan Oxelgren Park rink.",1/4/21 19:16,1.0,50.4890805,-104.6363177,STAN OXELGREN MEMORIAL PARK,0.0864333444287767,126 SANGSTER BLVD,50.48968,-104.63554,The lights.,34   PIAPOT BAY,NORTH,55
1/5/21 10:30,Parks Inquiry,PrkGrbEmpt,Parks Maintenance,"&nbsp;There is a garbage can that is overflowing. I was wondering if it was someone missed? It is located on the same street as Wilfred Hunt school, at the entrance of a path that leads to the street in front of Wilfred Hunt.&nbsp;Thank you very much for all you do. Our parks are more important than ever this year!&nbsp;Thank you!&nbsp;",1/5/21 10:32,1.0,50.43019,-104.56182,UNIVERSITY PARK,0.145700545997031,25 MICHENER DR,50.4311,-104.56034,Overflowing garbage can,121   MAYFIELD RD,EAST,110
1/5/21 12:17,Parks Inquiry,PathMntnc,Parks Maintenance,"&nbsp; I always walk my dogs in Lakeridge Park and I am so grateful for the people that clear the paths, and that they clean them so promptly. I share this gratitude with many other walkers. Thank you again!?",1/5/21 12:36,1.0,50.50104,-104.65853,LAKERIDGE PARK,0.0,5560 LEIBEL CRES,50.50104,-104.65853,Path maintenance.,5560   LEIBEL CRES,WEST,7
1/5/21 14:57,Parks Inquiry,ParksMnt,Parks Maintenance,Caller is wanting to see if we can get some sand down by the dog park gates at Mount pleasant and also if we can open up the other gate as with water tanker in the one area going into the dog park is going to be full of cluster.,1/5/21 15:00,1.0,50.4672738,-104.5959123,EASTVIEW PARK,0.5206251146419768,945 BRODER ST,50.46427,-104.59027,Dog park gate sand/cluster,750 N WINNIPEG ST,CENTRAL,-1
1/5/21 18:22,Parks Inquiry,OutdrRink,Parks Maintenance,Lights at outdoor rink do not work. Please check and repair.,1/5/21 18:23,1.0,50.4310758,-104.5616937,UNIVERSITY PARK,0.0959227809733235,25 MICHENER DR,50.4311,-104.56034,Lights,165   WINDFIELD RD,EAST,55
1/6/21 10:16,Parks Inquiry,OutdrRink,Parks Maintenance,"The nearby out door skating rink links turn on at midnight, and they are pointed right into his home. Even with blinds, it makes it impossible to sleep. Caller would like to know if a locked timer can be added so they don't turn on so late. Or if they can be moved so they do not point into his home. This is Leslie Park",1/6/21 10:18,1.0,50.4477343,-104.6338207,LESLIE PARK  LAWN BOWLING PARK,0.2059864248496029,3820 VICTORIA AVE,50.44771110000001,-104.6367296,Noise,1957   MCTAVISH ST,CENTRAL,34
1/6/21 23:09,Parks Inquiry,No Subtype,Parks Maintenance,"New construction basement, we will need to access the pathway to the North of 4401 Sage Drive in the Creeks with a bobcat in order to complete the back- filling of the new concrete foundation",1/6/21 23:11,1.0,50.4085853,-104.522877,OKIMASIS PARK,0.2881026171438007,4200 WILD ROSE PL,50.41084,-104.52488,.Construction noise,4401   SAGE DR,EAST,34
1/7/21 8:34,Parks Inquiry,VehcleAcce,Parks Maintenance,"Caller sent email to submit for a permit of access. Instead of being told it was approved or not, he got an email asking him to go to the website to print off an access form to send in. He says it was apart of the email he had sent and wants to know what to do.",1/7/21 8:36,1.0,50.4085853,-104.522877,OKIMASIS PARK,0.2881026171438007,4200 WILD ROSE PL,50.41084,-104.52488,Processing time,4401   SAGE DR,EAST,-1
1/7/21 9:04,Parks Inquiry,VehcleAcce,Parks Maintenance,"New construction basement, we will need to access the pathway to the North of 4401 Sage Drive in the Creeks with a bobcat in order to complete the back- filling of the new concrete foundation&nbsp; start date jan 7/.21",1/7/21 9:06,1.0,50.4085853,-104.522877,OKIMASIS PARK,0.2881026171438007,4200 WILD ROSE PL,50.41084,-104.52488,"Construction, noise",4401   SAGE DR,EAST,34
1/7/21 11:57,Parks Inquiry,PathMntnc,Parks Maintenance,Young girl is doing a great job on the pathway in Philip Rd Park. Resident wants to make sure is told that she is doing a great job. Her name is Amanda and is always doing work in the park. She is doing amazing! Thank you for all your work!,1/7/21 12:00,1.0,50.4266099,-104.5457799,PHILLIP PARK,0.0,3256 MARGARET RD,50.4266099,-104.5457799,Resident concerns not addressed.,3256   MARGARET RD,EAST,6
1/7/21 12:00,Parks Inquiry,PathMntnc,Parks Maintenance,"&nbsp;Could you please sand the two entrances south off of Bothwell Cres that go into Mount Pleasant Park, they are pure ice, very dangerous for humans and dogs. Thankyou!",1/7/21 12:11,1.0,50.4917938,-104.597258,BOTHWELL PARK,0.1242300005801785,94 BOTHWELL CRES,50.4927599,-104.59814," ice, safety",109   BOTHWELL CRES,NORTH,82
1/7/21 16:10,Parks Inquiry,OutdrRink,Parks Maintenance,Caller states the threshold of the doorway to the ice shack has heaved and now the door will not close. It needs to be shaved down. Please attend.,1/7/21 16:13,1.0,50.4491616,-104.6470508,MCNAB PARK,0.0,4802 11TH AVE,50.4491616,-104.6470508,Inaccessible ice shack.,4802   11TH AVE,WEST,82
1/7/21 16:15,Parks Inquiry,ParksMnt,Parks Maintenance,Caller states the walkways in Westhill Park are littered with dog feces. She is unsure of the owner identities. Caller believes more trash bins may be needed. Please attend.,1/7/21 16:20,1.0,50.48008,-104.69908,WESTHILL PARK,0.0,8103 SHERWOOD DR,50.48008,-104.69908,"Litter,Dog feces",8103   SHERWOOD DR,WEST,53
1/8/21 8:29,Parks Inquiry,OutdrRink,Parks Maintenance,The bench that residents change their skates on is broken outside the outdoor rink. Please fix.,1/8/21 8:33,1.0,50.46427,-104.59027,EASTVIEW PARK,0.0,945 BRODER ST,50.46427,-104.59027,Vandalism,945   BRODER ST,CENTRAL,9
1/8/21 10:31,Parks Inquiry,OutdrRink,Parks Maintenance,"I was awakened this fine morning to that most joyous sound of the back up ""beep, beep, beep"", flashing yellow beacons and truck lights shining into my bedroom window as the city worked on the skating rink at Mable Brown Park AT 6:45AM!!! Do I have to remind the city that there is a noise bylaw from 10pm to 7am (and 7am is a full hour too early in my opinion). Good Morning to you and Thanks guys. Please cease and desist. ?",1/8/21 10:34,1.0,50.4670849,-104.6801682,MABLE BROWN PARK,0.0,225 MIKKELSON DR,50.4670849,-104.6801682,Noise,225   MIKKELSON DR,WEST,34
1/8/21 10:41,Parks Inquiry,ParksMnt,Parks Maintenance,THANK YOU THANK YOU FOR BEING SO QUICK TO SAND THE ENTRYS TO MOUNT PLEASANT OFF OF BOTHWELL!!! MY DOG AND I ARE SAFE NOW AND CAN PUT THE SKATES AWAY,1/8/21 10:43,1.0,50.4917938,-104.597258,BOTHWELL PARK,0.1242300005801785,94 BOTHWELL CRES,50.4927599,-104.59814,Slippery Entry,109   BOTHWELL CRES,NORTH,-1
1/8/21 23:18,Parks Inquiry,OutdrRink,Parks Maintenance,Rink needs to be re-flooded. It was flooded on the afternoon of the 6th. But was subsequently ruined by people skating on it before it froze,1/8/21 23:20,1.0,50.402433,-104.6318816,DR AE PERRY PARK,0.0596758168969169,40 COWIE RD,50.4019,-104.63198,.skating before freezing,93   LINCOLN DR,SOUTH,82
1/10/21 19:02,Parks Inquiry,OutdrRink,Parks Maintenance,The lights are burned out at the ice rink.,1/10/21 19:03,1.0,50.47252,-104.6778999,MCLURG SCHOOL PARK,0.0,201 FULTON DR,50.47252,-104.6778999,Maintenance,201   FULTON DR,WEST,7
1/10/21 23:46,Parks Inquiry,PathMntnc,Parks Maintenance,Just want to say how VERY MUCH I appreciate the wide-swath clearing of the City?s walking paths and the sanding of their slippery areas. This makes it MUCH easier?and safer?to socially distance while we?re sharing the healthy outdoors. THANK YOU and stay healthy! City-wide walkway paths (Pilot Butte Creek++) No need to reply; keep up the good work!,1/10/21 23:56,1.0,50.4760505,-104.6086315,IMPERIAL PARK,0.24660412207108,305 ROSE ST,50.47402,-104.60723,Walkway maintenance,159 N HAMILTON ST,NORTH,88
1/11/21 0:33,Parks Inquiry,ParksMnt,Parks Maintenance,The metal gate at the school that they open for maintence trucks to go in to flood the rink has been left open since Friday. I tried to go close it but needs the key for the padlocks . It looks like it might be broken as the chain andlock seem short and the 2 gates don?t match up.. perhaps that is why it was left unlocked?? Not sure. It?s a safety concern cause people are now driving right through and parking right up by shack and skating area which if little kids are around etc they couldget ran over. This should not be an area for the people to park at. please fix this gate ASAP. Thanks Location Elsie Mironuck play ground by the rink 18 Wakefield Crescent,1/11/21 0:36,1.0,50.4787229,-104.6496854,SHERWOOD PARK,0.0612509206597876,20 WAKEFIELD CRES,50.47914,-104.64912,"Broken gate, safety concern",18   WAKEFIELD CRES,WEST,24
1/11/21 8:08,Parks Inquiry,PathMntnc,Parks Maintenance,"SR has been created in response to an inquiry to Councillor Findura and MayorResponse not requested from resident. Councillor and Mayor have been notified that a response is not required. Departments may contact resident at their own discretion.I would like to commend the person who cleared the walkway path on the retention pond on Cavendish in the Glencairn area of the city. I believe it was done shortly after Christmas. It's obvious this person knew what they were doing and has a good work ethic.This pathway is used by many citizens in our area for walking, and our children use the basin as a tobogganing hill. There is also a play area with equipment for the children. Please pass this on to the city employee who took time to do an exceptional jobof clearing the snow. Happy new year to all!",1/11/21 8:10,1.0,50.4595993,-104.5528354,SCRIVENER PARK,0.0988329301995941,255 CANNON ST,50.45957,-104.55144,Walkway path on retention pond,266   CANNON ST,EAST,88
1/11/21 9:32,Parks Inquiry,PrkGrbEmpt,Parks Maintenance,Caller states there is a trash can along the walkway along side Joanne Goulet Golf course that need to be emptied. Please attend.,1/11/21 9:35,1.0,50.47505,-104.70397,BUNDON PARK,0.6334135572686935,7931 GORDON STASESON BLVD,50.47408,-104.69515,key issue: trash,8045   KESTRAL DR,WEST,48
1/11/21 10:17,Parks Inquiry,ParksMnt,Parks Maintenance,"SR has been created in response to an inquiry to Coucillor Cheryl Stadnichuk and Mayor.Response not requested from resident. Councillor and Mayor have been notified that a response is not required.SR 2043200 has been forwarded to Parks &amp; Open Space Services - no response requested from resident, departments discretion to respond SR 2043201 has been forwarded to Parks Maintenance no response requested from resident, departments discretion to respond Departments may contact resident at their own discretion. A tree trimming/pruning contractor working this morning on the south end of Munro Park (Anderson Avenue side) just moved their two trucks onto the park. I am concerned about the damage the vehicles will do to water sprinkle heads and system beneath the frozen ground.",1/11/21 10:28,1.0,50.4143159,-104.6055101,MUNROE PARK,0.0,31 GARDINER AVE,50.4143159,-104.6055101,Vehicle damage to sprinkler system.,31   GARDINER AVE,SOUTH,19
1/11/21 10:20,Parks Inquiry,PathMntnc,Parks Maintenance,"Kudos from Councillor Findura regarding a previous SR. Councillor Findura wanted to say thank you as well for the great job!Send a thank you pleaseJohnSent from my iPhoneBegin forwarded message:From: regina.councillor@queue.telax.netDate: January 11, 2021 at 8:10:42 AM CSTTo: John Findura &lt;JFINDURA@regina.ca&gt;, Mayor &lt;Mayor@regina.ca&gt;Subject: Contact Your City Councillor? Service request 2043139 has been forwarded to Parks, no response requested from resident departments discretion to respond.&nbsp;Council Member To ContactMayor Sandra Masters, Ward 5 - Councillor John FinduraYour MessageGood Morning Sandra! I would like to commend the person who cleared the walkway path on the retention pond on Cavendish in the Glencairn area of the city. I believe it was done shortly after Christmas. It's obvious this person knew what they were doing and has a good work ethic. This pathway is used by many citizens in our area for walking, and our children use the basin as a tobogganing hill. There is also a play area with equipment for the children. Please pass this on to the city employee who took time to do an exceptional job of clearing the snow. Happy new year to all!Sincerely,Lorraine ZerrFull NameLorraine ZerrAddress266 Cannon Street, Regina SK. S4N 5B3Preferred Phone306-540-4911Emaillorzer@sasktel.net",1/11/21 10:22,1.0,50.4595993,-104.5528354,SCRIVENER PARK,0.0988329301995941,255 CANNON ST,50.45957,-104.55144,Service Request 20431391. Lack of,266   CANNON ST,EAST,126
1/11/21 11:49,Parks Inquiry,IrrigMtnc,Parks Maintenance,Coleman Park Sign just north there is a leak. near the sidewalk. Around where the playground is on Fines Dr. Please investigate,1/11/21 11:58,1.0,50.4505432,-104.5427166,COLEMAN PARK,0.0,220 FINES DR,50.4505432,-104.5427166, there is a small line of waterWater,220   FINES DR,EAST,103
1/11/21 11:53,Parks Inquiry,PathMntnc,Parks Maintenance,Resident would like to request to have the pathways widened as people walking through are coming into close contact with each other and most do not wear masks. Please look into.,1/11/21 11:58,1.0,50.47505,-104.70397,BUNDON PARK,0.6334135572686935,7931 GORDON STASESON BLVD,50.47408,-104.69515,"Crowding, Masks",8045   KESTRAL DR,WEST,-1
1/11/21 12:59,Parks Inquiry,ParksMnt,Parks Maintenance,"caller is requesting if we can put up a garbage bins in the dog park area as the one bin is far away from dog park area, she is stating a lot of dog waste is being left bc the bin is so far",1/11/21 13:01,1.0,50.46719,-104.55757,CANNON STREET PARK,0.7958297069171659,311 CANNON ST,50.46131,-104.55116,lack of garbage bins,624   SOLOMON CRES,EAST,86
1/11/21 13:23,Parks Inquiry,ParksMnt,Parks Maintenance,"caller is reporting the one way on this parking lot at A.E wilson, does not make sense to have one way, not safe the way its designed people are assuming is that you cant go straight the sign is confusing people would like us to look into this parking lot - we are also not keeping the ice under control",1/11/21 13:31,1.0,50.4602177,-104.6752887,AE WILSON PARK WEST,0.0,1010 MCCARTHY BLVD,50.4602177,-104.6752887,-one way-confusing sign,1010   MCCARTHY BLVD,WEST,68
1/11/21 14:08,Parks Inquiry,OutdrRink,Parks Maintenance,Caller states flooding for out door rink is very bad. There are patches of large ice sticking out. Please fix.,1/11/21 14:10,1.0,50.4334864,-104.6339848,CAEN PARK,0.31698596150797,3010 PRINCESS ST,50.43134,-104.63693,"Flooding, Ice",    MCTAVISH ST,SOUTH,-1
1/12/21 8:20,Parks Inquiry,OutdrRink,Parks Maintenance,For the last two or three weeks people party in the hockey rink for hours from 11 to 2. Please turn off the lights or put a timer so they can not be turned off when it gets late.,1/12/21 8:21,1.0,50.4323968,-104.6279634,LAKEVIEW PARK,0.0732950321968632,2910 ATHOL ST,50.4325199,-104.62898," partying, hockey rink, lights",2949   ATHOL ST,SOUTH,29
1/12/21 12:41,Parks Inquiry,OutdrRink,Parks Maintenance,"calling to report condition of rinks at this park boarded and non boarded area the ice rink is extremely bumpy and really bad, kids are tripping, large cracks not safe to skate on, not being cleared carefully, flooded both yesterday early in the day made it worse. apparently several rinks throughout the city are in the same condition and a lot of people are talking about itinstructors of skating classes are repeatedly warning the kids to be careful",1/12/21 12:48,1.0,50.4477111,-104.6367296,LESLIE PARK  LAWN BOWLING PARK,7.900874738066842e-13,3820 VICTORIA AVE,50.44771110000001,-104.6367296,.unsafe skating conditions,3820   VICTORIA AVE,CENTRAL,29
1/12/21 14:34,Parks Inquiry,OutdrRink,Parks Maintenance,Thank you to the city workers who prepared and flood the ice in Williston Park. I see they are using water from a tank truck this year. I want you to know that your efforts are appreciated and the rink is well used!,1/12/21 14:37,1.0,50.48162,-104.67851,WILLISTON PARK,0.0,30 WILLISTON DR,50.48162,-104.67851," Funding, maintenance",30   WILLISTON DR,WEST,7
1/12/21 15:16,Parks Inquiry,ParksMnt,Parks Maintenance,At the Baseball Field someone has cut a hole in the fence. Large enough for people to get through right by batting cage. Also there are vehicles parked in the parking lot for the ball diamonds. and gates should be locked up.,1/12/21 15:20,1.0,50.4672738,-104.5959123,EASTVIEW PARK,0.5206251146419768,945 BRODER ST,50.46427,-104.59027,"Fence, parking",750 N WINNIPEG ST,CENTRAL,12
1/13/21 8:50,Parks Inquiry,OutdrRink,Parks Maintenance,The push-button activated light does not work at this location. The sign says 5:30 pm to 11 pm. I was there at 6:30 pm and the light did not turn on when the button was pushed. Dieppe is not listed under the rinks where the light does not work. Would this be able to get fixed? Location Outdoor Rink - Dieppe Park Location 45 Dorothy St,1/13/21 8:59,1.0,50.4583827,-104.6802211,AE WILSON PARK WEST,0.4044106346642637,1010 MCCARTHY BLVD,50.4602177,-104.6752887,Light doesn't turn on,145   DOROTHY ST,WEST,102
1/13/21 10:39,Parks Inquiry,ParksMnt,Parks Maintenance,"Somone padlocked the gate at the end of the alley by city square and they did not do it the way the City workers do I think it was just a prank.It's caused havoc downtown for 2 days , could someone check it out there is obviously zero activity on the square so it had to be a prank",1/13/21 10:42,1.0,50.4490817,-104.6112641,CITY SQUARE PLAZA,0.0093489438801615,2100 12TH AVE,50.4490062,-104.611206,"padlocked gate, city square",1874   SCARTH ST,CENTRAL,24
1/13/21 10:50,Parks Inquiry,PrkGrbEmpt,Parks Maintenance,"Garbage can at sidewalk is full to overflowing, threatening to blow all over the neighbourhood with the upcoming winds!!!North side of 3500 Arbor Grove Drive (Woodland Grove Park) at the intersection of Arbor Grove and Hazel Grove",1/13/21 10:54,1.0,50.4241,-104.53122,WOODLAND GROVE PARK,0.0,3507 ARBOR GROVE DR,50.4241,-104.53122,Garbage,3507   ARBOR GROVE DR,EAST,45
1/13/21 11:12,Parks Inquiry,PathMntnc,Parks Maintenance,"I?ve noticed with appreciation how most walking paths are being cleared on either side, making for a wider and safer (less slippery) walking surface. How about clearing the path on Prince of Wales, from the lighted intersection to the stop sign? Also, what about the original park in Wascana View just down from the fountains? It?s not getting any lovin?/clearing, which makes it a challenge for dog walking unless others tramp in down.",1/13/21 11:25,1.0,50.4203,-104.53918,WASCANA VIEW PARK,0.0,3025 WASCANA CIRCLE,50.4203,-104.53918,Lack of maintenance.,3025   WASCANA CIR,EAST,137
1/14/21 9:33,Parks Inquiry,ParksMnt,Parks Maintenance,resident is reporting chainlink fence that runs along entire length of this pathway was knocked down by snow behind 301 Brookview unsure if city fence or private - please contact to advise,1/14/21 9:36,1.0,50.4743666,-104.6900089,STEINSON PARK,0.2032144669758974,7700 GORDON STASESON BLVD,50.47579,-104.69181,Fencing,417   BROOKVIEW DR,WEST,12
1/14/21 10:16,Parks Inquiry,PathMntnc,Parks Maintenance,"I would like to request the sidewalk running north and south through Gocki Park located just south of the Core Ritchie be cleared. Our students in wheelchairs from St. Maria Faustina School use this sidewalk to access the Core Ritchiegym on Thursday afternoons. If this could be cleared ASAP, we would really appreciate it! Thanks a bunch!425-15th Avenue",1/14/21 10:20,1.0,50.4432305,-104.5865071,GOCKI PARK,0.0,2230 LINDSAY ST,50.4432305,-104.5865071, NAccessibility,2230   LINDSAY ST,CENTRAL,-1
1/15/21 8:02,Parks Inquiry,PathMntnc,Parks Maintenance,Kiwanis Park the walkiing path needs to be cleaned. The whole Park is hard to walk in. Please clear,1/15/21 8:04,1.0,50.43732,-104.6297699,KIWANIS WATERFALL PARK,0.0,2755 ELPHINSTONE ST,50.43732,-104.6297699," the debrisunsightly, debris,",2755   ELPHINSTONE ST,SOUTH,35
1/15/21 11:08,Parks Inquiry,ParksMnt,Parks Maintenance,"SR has been created in response to an inquiry to Councillor Stadnichuk and Mayor.Ensure Councillor and mayor@regina.ca are copied on the response to the customer.For the first time since we moved into our home in 1990, Munro Park is being used as a snow dump this morning. I could not read the name on the dump truck because it was obscured by our trees. The dump truck is accessing Munro Park fromthe north end (Gardiner Avenue). In addition, the truck and trailer the crew used to bring a small bobcat into the area at 7:30sh this morning, is still parked across the front entrance to the park. Again, I am concerned about the damage these vehicles aredoing to the sprinkler system. Be safe. Be warm.",1/15/21 11:09,1.0,50.4153797,-104.6056405,MUNROE PARK,0.1186494709601625,31 GARDINER AVE,50.4143159,-104.6055101,Damage to sprinkler system.,40   GARDINER AVE,SOUTH,-1
1/15/21 12:16,Parks Inquiry,ParksMnt,Parks Maintenance,Just wondering why a private contractor is dumping snow in the north end of Monroe Park. In the 30+ years we have lived here this is the first time this has happened.,1/15/21 12:27,2.0,50.4143159,-104.6055101,MUNROE PARK,0.0,31 GARDINER AVE,50.4143159,-104.6055101,-snow removal,31   GARDINER AVE,SOUTH,11
1/15/21 15:03,Parks Inquiry,ParksMnt,Parks Maintenance,Caller states that someone wreaked the park with a front loader. Caller suspect that it was 44 Gardner as there are huge tire treds going from his place to the park and some of the bushes are wreaked. Please investigate.,1/15/21 15:07,1.0,50.4143159,-104.6055101,MUNROE PARK,0.0,31 GARDINER AVE,50.4143159,-104.6055101,Vandalism,31   GARDINER AVE,SOUTH,9
1/15/21 16:01,Parks Inquiry,OutdrRink,Parks Maintenance,McNab Park Rink lights have not worked properly since the power went out in the storm 2 days ago - also asking to have the heat turned up some inside the shack,1/15/21 16:03,1.0,50.4491616,-104.6470508,MCNAB PARK,0.0,4802 11TH AVE,50.4491616,-104.6470508,"Broken lights, no heat",4802   11TH AVE,WEST,102
1/16/21 18:09,Parks Inquiry,OutdrRink,Parks Maintenance,"The ice rink lights are not working, please inspect.",1/16/21 18:12,1.0,50.4022999,-104.61077,MIKE BADHAM PARK,0.0,2606 GRANT RD,50.4022999,-104.61077,Not working,2606   GRANT RD,SOUTH,102
1/16/21 19:22,Parks Inquiry,OutdrRink,Parks Maintenance,Outdoor Rink Lights not working.,1/16/21 19:24,1.0,50.4325199,-104.62898,LAKEVIEW PARK,0.0,2910 ATHOL ST,50.4325199,-104.62898,Not functioning lights.,2910   ATHOL ST,SOUTH,102
1/16/21 19:39,Parks Inquiry,OutdrRink,Parks Maintenance,Outdoor Rink lights do not turn on,1/16/21 19:41,1.0,50.4755261,-104.6073822,IMPERIAL PARK,0.1678166716533897,305 ROSE ST,50.47402,-104.60723,Lights,200   BROAD ST,NORTH,55
1/17/21 19:07,Parks Inquiry,OutdrRink,Parks Maintenance,Outdoor Rink lights are not working. Its not safe.,1/17/21 19:11,1.0,50.4633996,-104.6565958,ROSEMONT SCHOOL PARK,0.0,5310 4TH AVE,50.4633996,-104.6565958,Safety,5310   4TH AVE,WEST,2
1/17/21 19:52,Parks Inquiry,OutdrRink,Parks Maintenance,Outdoor Rink lights are not working,1/17/21 19:55,1.0,50.4325199,-104.62898,LAKEVIEW PARK,0.0,2910 ATHOL ST,50.4325199,-104.62898,Lack of light,2910   ATHOL ST,SOUTH,-1
1/18/21 1:30,Parks Inquiry,PathMntnc,Parks Maintenance,When will the bike/walking path on Courtney St be cleared?Courtney St between Maple Ford Gate and 9th Avenue N.,1/18/21 1:37,1.0,50.4941761,-104.686848,HAYWORTH CRESCENT PARK,0.5626273839831281,750 RINK AVE,50.4905199,-104.68135,Bike/walking path not cleared.,    COURTNEY ST,WEST,114
1/18/21 2:24,Parks Inquiry,ParksMnt,Parks Maintenance,"The skating rink flooded/built at Jack McKenzie school is wonderful and well used. Our home backs the school ground (we live on Canterbury Pl). The chain link gate from the teachers parking lot to the field area was opened weeks ago toflood/build the rink, but that work has now been completed. This chain was never locked back up. Last night there was a vehicle driving all over the school ground and doing donuts on the rink. I called the police but the vehicle left while we were on the phone.As well on numerous occasions people have been driving onto the school grounds right up to the rink to go skating. There is no need for this as the teachers parking lot is very close by.&nbsp;I would request that this gate be locked so that these kinds of activities are stopped.",1/18/21 2:28,1.0,50.4293245,-104.5293795,PRINCE WILLIAM PARK,0.0,3860 BUCKINGHAM DR,50.4293245,-104.5293795,"vandalism, trespassing",3860 E BUCKINGHAM DR,EAST,84
1/18/21 8:17,Parks Inquiry,PathMntnc,Parks Maintenance,Caller would like us to clear a pathway for people to walk through it.,1/18/21 8:19,2.0,50.4582869,-104.6086978,STEWART RUSSELL PARK,0.0,1912 E 7TH AVE,50.4582869,-104.6086978," accessibility, pathway",1912 E 7TH AVE,EAST,64
1/18/21 8:35,Parks Inquiry,LitPubProp,Parks Maintenance,"Some one has emptied the park garbage containers on the ground, squished the dog poop bags and thrown garbage everywhere. The children walking to school will have to get around the mess. Person has done this last couple days",1/18/21 8:43,1.0,50.4897573,-104.6705122,WH FORD PARK,0.0,6129 DALGLIESH DR,50.4897573,-104.6705122,Garbage on the ground,6129   DALGLIESH DR,WEST,-1
1/18/21 8:55,Parks Inquiry,PathMntnc,Parks Maintenance,We have been walking daily on the bike path. Although it has been cleared its is very icy. It is used by many walkers and is dangerous. Could the city spread some sand on the path? Selinger Park in Richmond Place. Bike path all the way between Fleet Street and Assiniboia Avenue,1/18/21 8:57,1.0,50.4218226,-104.5566431,SELINGER PARK,0.3978267611299655,3674 SELINGER CRES,50.41914999999999,-104.55291,Icy bike path,1803 E ASSINIBOINE AVE,EAST,138
1/18/21 9:12,Parks Inquiry,PathMntnc,Parks Maintenance,"Walking a dog in Wascana View is very challenging as in addition to the abundance of icy sidewalks, the local park isn?t being cleared, nor is the pathway to one that does receive winter maintenance. Having recently walked around KinsmanPark and adjacent pathways, the difference between the two areas is shocking. Can something be done about this?&nbsp;Thank you&nbsp;Park adjacent to the fountains on Wascana Circle, across from the Temple. Pathway that runs from the lighted intersection at Prince of Wales &amp; Assiniboine to the sidewalk/gated water station.&nbsp;",1/18/21 9:13,1.0,50.4203,-104.53918,WASCANA VIEW PARK,0.0,3025 WASCANA CIRCLE,50.4203,-104.53918,"icy surfaces, unplowed paths",3025   WASCANA CIR,EAST,138
1/18/21 10:42,Parks Inquiry,PathMntnc,Parks Maintenance,Caller states the walkway between Riffell and Winston Knoll needs to be cleared. Please attend.Debbie 3065392228,1/18/21 10:45,1.0,50.49487,-104.65797,LAKERIDGE SPORTS PARK,1.5801749476133684e-12,5451 ROCHDALE BLVD,50.49487000000001,-104.65797,clearing walkway,5451   ROCHDALE BLVD,WEST,88
1/18/21 10:55,Parks Inquiry,PathMntnc,Parks Maintenance,Caller would like us to clear the park pathways. A.E. WIlson Park East.,1/18/21 10:56,1.0,50.45788,-104.66807,AE WILSON PARK EAST,0.0,6102 BRUNSKILL PL,50.45788,-104.66807,Visitor Complaint: Overgrowth on,6102   BRUNSKILL PL,WEST,6
1/18/21 12:11,Parks Inquiry,PathMntnc,Parks Maintenance,"SR has been created in response to an inquiry to Councillor BrescianiEnsure Councillor is copied on the response to the customerMy husband just returned from a dog walk and as always, commented on our local park pathways? conditions. Why is the oldest (one of the first) parks in Wascana View not being ploughed, the one just down from the fountains on Wascana Circle and the Temple? Additionally,the path running adjacent to Prince of Wales from the lighted intersection at Assiniboine to the new stop sign is also not getting any attention, which makes walking to the pathway that IS cleared a real challenge. With the taxes we are paying this makes nosense; it also makes dog walking treacherous unless we get into the car and drive to, for example, Kinsman Park, which we shouldn?t have to do. I walked that and the surrounding paths last week and EACH one was in excellent shape, something my friend who livesin the area, says is normative. Thank you for looking into this.",1/18/21 12:14,1.0,50.434032,-104.5924825,HOLLAND PARK,0.4169367131386854,410 HOLLAND AVE,50.43575,-104.58725,Pathway maintenance,1022   WASCANA HLND,CENTRAL,38
1/18/21 13:09,Parks Inquiry,LitPubProp,Parks Maintenance,"Heads up @CityofRegina! We?ve got some extra garbage collected for you along the path behind the Devereux buildings. Thank-you. It?s alongside the walking path, between Lewvan Drive and Harbour Landing Drive.",1/18/21 13:14,1.0,50.4360478,-104.644555,COLUMBUS PARK,0.3887224943651247,2940 PASQUA ST,50.4328868,-104.642211,Garbage collectors,    LEWVAN DR,SOUTH,65
1/18/21 13:11,Parks Inquiry,ParksTrePr,Parks Maintenance,"Hi. I am the principal of St. Jerome School. The park to the east of our building is littered with fallen branches after last Wednesday's wind storm, including a very large one at the eastern most fence line. Might it be possible to have someone come out to pick them up? They are becoming a safety concern for kids in the park. Thank you.",1/18/21 13:14,1.0,50.4905199,-104.68135,HAYWORTH CRESCENT PARK,0.0,750 RINK AVE,50.4905199,-104.68135,-Litter-Unsafe,750   RINK AVE,WEST,14
1/19/21 8:39,Parks Inquiry,PrkGrbEmpt,Parks Maintenance,"Henry Braun Park garbage is full, both of them. Please empty.",1/19/21 8:40,1.0,50.4622608,-104.5334863,HENRY BRAUN PARK,0.0,951 MIDDLETON CRES,50.4622608,-104.5334863,"garbage, capacity",951   MIDDLETON CRES,EAST,45
1/19/21 9:25,Parks Inquiry,PathMntnc,Parks Maintenance,"Caller states deep snow covering path, please clear.",1/19/21 9:26,1.0,50.4602177,-104.6752887,AE WILSON PARK WEST,0.0,1010 MCCARTHY BLVD,50.4602177,-104.6752887,Path is not clear.,1010   MCCARTHY BLVD,WEST,114
1/19/21 11:00,Parks Inquiry,OutdrRink,Parks Maintenance,"Hi, We have been sledding at Mt Pleasant and skating at Mt Pleasant Oval in the evenings, some nights the lights are on. Some nights not. Is there a way to turn them on? Thanks",1/19/21 11:01,1.0,50.4559095,-104.5951702,OXFORD PARK,0.5474723022165986,1512 E 8TH AVE,50.45694959999999,-104.602729,Lights,    WINNIPEG ST,EAST,55
1/19/21 13:03,Parks Inquiry,OutdrRink,Parks Maintenance,Grassick Park has not been flooded in a week. Please investigate and flood ice is in rough shape.,1/19/21 13:09,1.0,50.45369,-104.65975,GRASSICK PARK,1.5801749476133684e-12,5325 DEWDNEY AVE,50.45368999999999,-104.65975,Ice flooded,5325   DEWDNEY AVE,WEST,104
1/20/21 6:26,Parks Inquiry,OutdrRink,Parks Maintenance,"The outdoor lights at the ice rink did not work on Friday night. We tried them several times during the evening, but pushing the button did not do anything.&nbsp; 2501 grant road ( grant road school ice rink)",1/20/21 6:29,1.0,50.40258,-104.6123899,MIKE BADHAM PARK,0.1189594923758946,2606 GRANT RD,50.4022999,-104.61077,Lights,2501   GRANT RD,SOUTH,55
1/20/21 14:40,Parks Inquiry,VehcleAcce,Parks Maintenance,Applicant Name: Jeff and Alison Bruce Email: hay@sasktel.net Owner Name: Ryan Sasse Address: 5336 Aerial CresPhone Number: 3065510362 Company Name: Address: Phone: Access Location and Address: Walkway between 5368 and 5376 Aerial Cres Describe the project and/or type of equipment being used and why the access is required.Explain any special conditions or requests: We would like access to the back yard of 5336 Aerial Cres to remove hot tub and gazebo. Attach plans or maps showing exact location and proposed access route. Project Start Date: 2021-01-23 Project End Date: 2021-01-23 I hereby declare that I have read and understand the Terms and Conditions and agree to comply. Yes??,1/20/21 14:53,1.0,50.4026745,-104.6555511,BEACON PARK,0.0912268849520158,5389 AERIAL CRES,50.4021,-104.65647,Permission to access backyard of 5336,5368   AERIAL CRES,SOUTH,92
1/20/21 18:59,Parks Inquiry,OutdrRink,Parks Maintenance,"Outdoor Rink lights are not working. They come on at around 10 pm , please attend",1/20/21 19:00,1.0,50.4740367,-104.6271597,MCMURCHY PARK,0.0,250 N GARNET ST,50.4740367,-104.6271597, toLights not working,250 N GARNET ST,NORTH,102
1/21/21 8:29,Parks Inquiry,PrkGrbEmpt,Parks Maintenance,The garbage bin in the park off Cannon St. in between Scrivener Cres. is full/overflowing. It is deep in the park.,1/21/21 8:32,1.0,50.45957,-104.55144,SCRIVENER PARK,0.0,255 CANNON ST,50.45957,-104.55144,Garbage bin overflow,255   CANNON ST,EAST,110
1/21/21 8:37,Parks Inquiry,OutdrRink,Parks Maintenance,Lights are not working at the outdoor rink,1/21/21 8:39,1.0,50.46372,-104.62613,GRASSICK PLAYGROUND PARK,0.0,901 GARNET ST,50.46372,-104.62613,Faulty equipment,901   GARNET ST,CENTRAL,90
1/21/21 9:40,Parks Inquiry,PathMntnc,Parks Maintenance,Previous SR# 2045391 - log notes entered 2 days ago say out now working on sidewalks - none have been done as of this morning in AE Wilson Park,1/21/21 9:41,1.0,50.4602177,-104.6752887,AE WILSON PARK WEST,0.0,1010 MCCARTHY BLVD,50.4602177,-104.6752887,lack of follow-through,1010   MCCARTHY BLVD,WEST,-1
1/21/21 9:40,Parks Inquiry,PathMntnc,Parks Maintenance,The pathways need to be cleared of ice &amp; snow throughout A.E Wilson Park. Please look into.,1/21/21 9:43,1.0,50.45788,-104.66807,AE WILSON PARK EAST,0.0,6102 BRUNSKILL PL,50.45788,-104.66807,Ice and Snow,6102   BRUNSKILL PL,WEST,82
1/21/21 11:26,Parks Inquiry,ParksMnt,Parks Maintenance,Caller is wanting to know if we can put some sand on the sloping part at the above dog park as it is sheer ice.,1/21/21 11:29,1.0,50.46719,-104.55757,CANNON STREET PARK,0.7958297069171659,311 CANNON ST,50.46131,-104.55116,Slippery surface,624   SOLOMON CRES,EAST,-1
1/21/21 12:51,Parks Inquiry,PathMntnc,Parks Maintenance,Please clear going south bike pathway from Sherwood and Courtney. They try to walk and it is very blown in. Field has blown in snow very bad.,1/21/21 12:54,1.0,50.4941761,-104.686848,HAYWORTH CRESCENT PARK,0.5626273839831281,750 RINK AVE,50.4905199,-104.68135,"snow, blown in",    COURTNEY ST,WEST,47
1/21/21 13:59,Parks Inquiry,PathMntnc,Parks Maintenance,Caller would like the pathway in Fairchild Park cleared. It is icy.,1/21/21 14:02,1.0,50.40775,-104.65619,FAIRCHILD PARK,0.0,5350 AERODROME RD,50.40775,-104.65619,Pathway is icy.,5350   AERODROME RD,SOUTH,138
1/21/21 15:31,Parks Inquiry,PathMntnc,Parks Maintenance,Snow removal and ice control on walking path behind St. Joan of Arc School Location Walking path in Normanview West. Particularly walking path from Dempsey to bridge that joins the rest of the path.&nbsp;&nbsp;,1/21/21 15:33,1.0,50.4764798,-104.6691542,BUTTON PARK,0.0989999474547406,6301 7TH AVE N,50.47734999999999,-104.66945,Snow/Ice,10   DEMPSEY AVE,WEST,47
1/21/21 16:00,Parks Inquiry,PathMntnc,Parks Maintenance,&nbsp;The walking path in the park in Harbour Landing (Tudor Park) is very icy. Can the city spread some sand on the path to avoid slips and falls? Thanks!&nbsp;,1/21/21 16:01,1.0,50.41543,-104.65096,TUTOR PARK,0.0,4975 TUTOR WAY,50.41543,-104.65096,Potential injuries,4975   TUTOR WAY,SOUTH,18
1/22/21 1:58,Parks Inquiry,PathMntnc,Parks Maintenance,"Just wondering what the status of snow removal is for the walking trails at AE Wilson and Rick Hansen Parks. The snow drifts make walking a challenge, and dangerous for older people. Exercise and fresh air are important to our wellbeing during these times of a pandemic.",1/22/21 2:05,1.0,50.4602177,-104.6752887,AE WILSON PARK WEST,0.0,1010 MCCARTHY BLVD,50.4602177,-104.6752887,"Snow drifts, snow removal.",1010   MCCARTHY BLVD,WEST,11
1/22/21 8:36,Parks Inquiry,OutdrRink,Parks Maintenance,Please flood the rink they were on it yesterday and the ice was in very rough shape causes a lot of falls onto the ice. It hasn't been flooded in awhile. Please flood rink and do maintenance.,1/22/21 8:41,1.0,50.4910687,-104.6119681,MJ COLDWELL PARK,0.1064402833534475,115 FAIRVIEW RD,50.49045,-104.61082,Not enough maintenance,103   FAIRVIEW RD,NORTH,5
1/22/21 10:22,Parks Inquiry,PathMntnc,Parks Maintenance,VENTURE PARK - Pathways need to be cleared in the park please&nbsp;,1/22/21 10:23,1.0,50.47819,-104.69215,VENTURE PARK,0.0,7907 VENTURE RD,50.47819,-104.69215,inefficient park maintenance,7907   VENTURE RD,WEST,27
1/22/21 12:22,Parks Inquiry,PathMntnc,Parks Maintenance,Wayne said pathway has not been cleared in the parking included the for assess entrances,1/22/21 12:24,1.0,50.4582869,-104.6086978,STEWART RUSSELL PARK,0.0,1912 E 7TH AVE,50.4582869,-104.6086978,Inadequate maintenance,1912 E 7TH AVE,EAST,67
1/22/21 14:40,Parks Inquiry,PathMntnc,Parks Maintenance,Ken Jenkins Park paths need to be cleared.,1/22/21 14:41,1.0,50.47484,-104.65514,KEN JENKINS PARK,0.0,210 MCINTOSH ST,50.47484,-104.65514,Clearing paths,210   MCINTOSH ST,WEST,114
1/25/21 8:26,Parks Inquiry,IrrigMtnc,Parks Maintenance,"Hello,Can I get a Locate on the below location? Please let us know if this has been located or is clear of irrigation and reference ticket # 0406697 - Map found in attachments tab aboveAlbert St South &amp; Service Rd (Save on Foods)Traffic Signals is installing a new pedestrian corridor&nbsp; &amp;&nbsp; will be boring &amp; putting bases on the North side of Albert St&nbsp; at the&nbsp; from crosswalk&nbsp; the West, Center Median, &amp; East side of Albert, &amp; we also need to bore south on the westside to the SaskPower PedestalType of work: Traffic SignalsContact: Keith @ 306-520-4277",1/25/21 8:29,1.0,50.4021098,-104.6173897,MARSH PARK,0.1214520551380489,134 MARSH CRES,50.40157,-104.6159,Traffic Signals,    ALBERT ST,SOUTH,34
1/25/21 9:24,Parks Inquiry,PathMntnc,Parks Maintenance,Empty lot at above address has a pathway next to it that is blown in please clear as it leads to the walkway in the green space behind this address. Please clear as you cant walk on this as it is to blown in and resident has tried to shovel but it is to heavy. Please clear,1/25/21 9:32,1.0,50.41005,-104.51917,RIPPLINGER PARK,0.1638126412079776,4211 CHUKA DR,50.41142,-104.51832,Blocked pathway,4301   SAGE DR,EAST,38
1/25/21 10:10,Parks Inquiry,PathMntnc,Parks Maintenance,Caller states the pathways on both sides of McCarthy Blvd need to be cleared. Caller states they are covered in snow. Please attend.,1/25/21 10:13,1.0,50.45788,-104.66807,AE WILSON PARK EAST,0.0,6102 BRUNSKILL PL,50.45788,-104.66807,snow,6102   BRUNSKILL PL,WEST,47
1/25/21 11:55,Parks Inquiry,PrkGrbEmpt,Parks Maintenance,There is a garbage can that is full and needs to be emptied. Its on the northside of Greenside Terrace. Please look into.,1/25/21 11:59,1.0,50.47505,-104.70397,BUNDON PARK,0.6334135572686935,7931 GORDON STASESON BLVD,50.47408,-104.69515,full garbage can,8045   KESTRAL DR,WEST,65
1/25/21 11:56,Parks Inquiry,PathMntnc,Parks Maintenance,There is a pathway that hooks up with the wider one that needs to be cleared - 4 foot wide path starts at 3332 &amp; goes to 3338 ant then heads south to hook up up the main pathwayNeighbours with snowblowers have been clearing the pathway between the houses - 3332 &amp; 3330 Tanager Cres,1/25/21 11:58,1.0,50.4534954,-104.5365626,EASTGATE PARK,0.403520492219777,3410 E EASTGATE DR,50.4516681,-104.5316384,.Snow removal,3332 E TANAGER CRES,EAST,11
1/25/21 11:56,Parks Inquiry,PathMntnc,Parks Maintenance,There is a pathway that hooks up with the wider one that needs to be cleared - 4 foot wide path starts at 3332 &amp; goes to 3338 ant then heads south to hook up up the main pathwayNeighbours with snowblowers have been clearing the pathway between the houses - 3332 &amp; 3330 Tanager Cres,1/25/21 11:58,1.0,50.4534954,-104.5365626,EASTGATE PARK,0.403520492219777,3502 E EASTGATE DR,50.4516681,-104.5316384,.Lack of snow removal,3332 E TANAGER CRES,EAST,144
1/25/21 12:32,Parks Inquiry,OutdrRink,Parks Maintenance,resident would like to know why we are not flooding the rink at this park please contact Terrance (306)525-8788,1/25/21 12:35,1.0,50.45369,-104.65975,GRASSICK PARK,1.5801749476133684e-12,5325 DEWDNEY AVE,50.45368999999999,-104.65975,lack of ice,5325   DEWDNEY AVE,WEST,123
1/25/21 12:37,Parks Inquiry,PathMntnc,Parks Maintenance,Please clear the snow off all the sidewalks in Stan Oxelgren Park. Thank you.,1/25/21 12:38,1.0,50.48968,-104.63554,STAN OXELGREN MEMORIAL PARK,0.0,126 SANGSTER BLVD,50.48968,-104.63554,Snow removal,126   SANGSTER BLVD,NORTH,11
1/25/21 15:59,Parks Inquiry,PathMntnc,Parks Maintenance,I would like to know when the city is going to clean the Optimist walk path because it?s hard to walk on with all the snow and keep 6- feet apart from other people,1/25/21 16:02,1.0,50.4536299,-104.65542,OPTIMIST PARK,0.0,5221 DEWDNEY AVE,50.4536299,-104.65542,"Snow, path",5221   DEWDNEY AVE,WEST,73
1/25/21 17:08,Parks Inquiry,No Subtype,Parks Maintenance,Marcella @ 306 - 519 -6946 (Employee)Outdoor rink - lock for shck is frozen - can't get key in was asked by supervisor to call at this number.,1/25/21 17:10,1.0,50.4783168,-104.696077,VENTURE PARK,0.2782368291890654,7907 VENTURE RD,50.47819,-104.69215,Frozen lock.,120 N DOIRON RD,WEST,24
1/26/21 6:16,Parks Inquiry,OutdrRink,Parks Maintenance,Mclurg rink lights are not working- please chk,1/26/21 6:18,1.0,50.47252,-104.6778999,MCLURG SCHOOL PARK,0.0,201 FULTON DR,50.47252,-104.6778999,Rink lights,201   FULTON DR,WEST,29
1/26/21 10:20,Parks Inquiry,PrkGrbEmpt,Parks Maintenance,Resident said that the garbage bins at the park are overflowing - please empty - Theresa Stevenson Park,1/26/21 10:21,1.0,50.4519845,-104.6524985,OPTIMIST PARK,0.2761472108651383,5221 DEWDNEY AVE,50.4536299,-104.65542,"garbage, overflowing, bins",1598 N MCINTOSH ST,WEST,110
1/26/21 11:44,Parks Inquiry,PathMntnc,Parks Maintenance,resident is requesting that we sand the pathways at this park. all entrances off wascana circle pathways are very icy,1/26/21 11:45,1.0,50.4203,-104.53918,WASCANA VIEW PARK,0.0,3025 WASCANA CIRCLE,50.4203,-104.53918,Complaint: icy pathways,3025   WASCANA CIR,EAST,138
1/26/21 11:55,Parks Inquiry,PrkGrbEmpt,Parks Maintenance,Garbage needs to be emptied. Please empty,1/26/21 11:58,1.0,50.50316,-104.68375,KRAHN PARK,0.0,7045 MAPLE RIDGE DR,50.50316,-104.68375, garbage cansLitter,7045   MAPLE RIDGE DR,WEST,65
1/26/21 11:58,Parks Inquiry,PrkGrbEmpt,Parks Maintenance,Garbage needs to be emptied on the east side of Courtney near this intersection in the walking path,1/26/21 11:59,1.0,50.4941761,-104.686848,HAYWORTH CRESCENT PARK,0.5626273839831281,750 RINK AVE,50.4905199,-104.68135,Garbage,    COURTNEY ST,WEST,45
1/26/21 13:58,Parks Inquiry,PathMntnc,Parks Maintenance,&nbsp;W.H. FORD PARK Pathway needs to be cleared - from Rink Ave north to end @&nbsp;955 N DEVONSHIRE DRIVE,1/26/21 14:01,1.0,50.4897573,-104.6705122,WH FORD PARK,0.0,6129 DALGLIESH DR,50.4897573,-104.6705122,Pathway needs to be cleared.,6129   DALGLIESH DR,WEST,38
1/27/21 14:59,Parks Inquiry,PrkGrbEmpt,Parks Maintenance,Garbage's need to be emptied all throughout GARDINER PARK - north &amp; south side - 424 UNIVERSITY PARK DRIVE &amp; 1911 E WAGMAN DRIVE as per MAP,1/27/21 15:01,1.0,50.4372573,-104.5537229,GARDINER PARK,0.0,424 UNIVERSITY PARK DR,50.4372573,-104.5537229,.Garbage,424   UNIVERSITY PARK DR,EAST,45
1/27/21 19:08,Parks Inquiry,OutdrRink,Parks Maintenance,Elissa works at rinks and the lights will not turn on at the Stan Oselgran Rink,1/27/21 19:13,1.0,50.4909963,-104.63195,STAN OXELGREN MEMORIAL PARK,0.2931256545084109,126 SANGSTER BLVD,50.48968,-104.63554,Stan Oselgran Rink,280   SANGSTER BLVD,NORTH,29
1/27/21 23:43,Parks Inquiry,DeadAnPU,Parks Maintenance,"New Albert Park -- the soccer nets have been left up for the winter. They have strangled a rabbit to death. It is caught in the nets. Please send a crew to cut it out asap as there are numerous children who play in this park. Please remove the nets before something else gets caught.Queen street, New Albert Park, soccer field behind 3823 Bow Bay",1/27/21 23:44,1.0,50.3992626,-104.6365871,NEW ALBERT PARK,0.1067534415046287,5002 MCTAVISH ST,50.39868,-104.63539,The soccer nets,3823   BOW BAY,SOUTH,57
1/28/21 9:00,Parks Inquiry,OutdrRink,Parks Maintenance,"A few weeks ago I sent in a note about the rink that has been poured at Jack McKenzie school. The chain gate from the teacher?s parking lot to the field was not locked and vehicles had been driving up to the rink, and I called the policeabout one vehicle doing donuts on the rink. &nbsp;The next week I saw a City employee flooding the rink so I went over and spoke with him. He said ?the boss? sent a lock with him to lock the gate up which was awesome! Well, the next weekend there were vehicles parked at the rink again so the lock had beenremoved or not locked. &nbsp;Again this morning, I watched the City vehicle out on the rink clearing the snow. When he was done he drove away through the teacher?s parking lot ?not stopping to lock the gate.&nbsp;Why is this not being locked? This is a SAFETY issue, and as the weekend approaches there will be a lot of people in the area.Outdoor Rink at Jack McKenzie school",1/28/21 9:05,1.0,50.4296532,-104.5280669,PRINCE WILLIAM PARK,0.0999029779592303,3860 BUCKINGHAM DR,50.4293245,-104.5293795,Security,3838 E BUCKINGHAM DR,EAST,24
1/28/21 11:48,Parks Inquiry,PrkGrbEmpt,Parks Maintenance,Garbage can at entrance to park is full.,1/28/21 11:53,1.0,50.424292,-104.532363,WOODLAND GROVE PARK,0.0837397865093364,3507 ARBOR GROVE DR,50.4241,-104.53122,"garbage, cleanliness",    ARBOR GROVE DR,EAST,99
1/29/21 8:45,Parks Inquiry,PrkGrbEmpt,Parks Maintenance,SR has been created in response to an inquiry from Councillor MohlEnsure Councillor is copied on the responseHello its Ward 10 Councillor Landon Mohl. I received a phone call complaint about overflowing garbage bins in the Park near Junor Place and Mcintosh street. Can someone please check them out and empty them if necessary. Thanks,1/29/21 8:47,1.0,50.5024211,-104.645816,MEMORIAL CROSS PARK,0.1901139925573213,4527 ELLARD WAY,50.50409,-104.6464,Overflowing garbage bins,    JUNOR DR,WEST,110
1/29/21 12:24,Parks Inquiry,VehcleAcce,Parks Maintenance,"Applicant Name: Gilroy Homes Email: ryan@gilroyhomes.caOwner Name: Gilroy Homes (transferred temporarily from homeowner Ziad Ramadan) Address: 320 Brookview Drive Phone Number: 3065417226 Company Name: Gilroy Homes Address: 3890 Eastgate Drive Phone: 3067896080 Access Location and Address: Going to 320 Brookview drive via 8045 Kestral Drive Describe the project and/or type of equipment being used and why the access is required. Explain any special conditions or requests: Building a new residence at the above address. need rear access to the area, primarily in winter time for the framing and backfilling process. These will be using a track hoe and a wheeled telehandler. Access will be used primarily overthe next couple weeks while frozen. Subsequent access will be with a tracked skid steer for grading in summer. Saskpower/Sask Energy will also be needing access possibily under their own permit. Attach plans or maps showing exact location and proposed access route.&nbsp; Project Start Date: 2021-01-01 Project End Date: 2021-10-01 I hereby declare that I have read and understand the Terms and Conditions and agree to comply.",1/29/21 12:28,1.0,50.4734752,-104.6898647,STEINSON PARK,0.2918948562781063,7700 GORDON STASESON BLVD,50.47579,-104.69181, Gilroy Homes / Ziad RamadanCustomer,320   BROOKVIEW DR,WEST,43
1/31/21 22:43,Parks Inquiry,OutdrRink,Parks Maintenance,needs the light reset as they are not coming on since 1 week now and is a safety hazard. please attend asap,1/31/21 22:45,1.0,50.47252,-104.6778999,MCLURG SCHOOL PARK,0.0,201 FULTON DR,50.47252,-104.6778999,Reset lights.,201   FULTON DR,WEST,55
1/31/21 23:40,Parks Inquiry,PathMntnc,Parks Maintenance,"There is a walking pathway that connects the old Usher high school to Broad St., just east &amp; north of the athletic field. The walkway was cleaned half way and then just left full of snow from this point to Broad St. (just south of overpass bridge). Can you please clear the whole walking path. Who would do only half and then leave the other half full of snowSee above for location. Area just north of 9th Avenue N., and firehall.",1/31/21 23:41,1.0,50.4854922,-104.7287586,BAKER PARK,1.5678811388414984,8801 SHERWOOD DR,50.4806799,-104.7079295,Walkway not cleared,100   9TH AVE,WEST,88
2/1/21 9:44,Parks Inquiry,PathMntnc,Parks Maintenance,Asking to have the pathways cleared in Venture Park - wants a callback on procedureShe walks from Doiron Rd all the way to McCarthy Blvd,2/1/21 9:47,1.0,50.47819,-104.69215,VENTURE PARK,0.0,7907 VENTURE RD,50.47819,-104.69215,Snow removal,7907   VENTURE RD,WEST,11
2/1/21 14:39,Parks Inquiry,PathMntnc,Parks Maintenance,I walk everyday through the Parkridge Park located at 3426 7th Avenue east. Starting Thursday Jan 28 2021 the walking pass has not be plow and their several location on the walking path the snow has drift in. I find it very difficultto walk on the drifted pathway. I wondering how often the pathway to be cleared for the residents? Is is possible to have the pathway plough on Monday Feb 1/2021?,2/1/21 14:40,1.0,50.4606381,-104.5336932,HENRY BRAUN PARK,0.1810294158599043,951 MIDDLETON CRES,50.4622608,-104.5334863,Snow on pathway.,3426 E 7TH AVE,EAST,73
2/2/21 8:16,Parks Inquiry,OutdrRink,Parks Maintenance,Caller needs the chain unlocked so he can clear the snow. Please remove lock.,2/2/21 8:18,1.0,50.4296532,-104.5280669,PRINCE WILLIAM PARK,0.0999029779592303,3860 BUCKINGHAM DR,50.4293245,-104.5293795,Unlocked chain,3838 E BUCKINGHAM DR,EAST,24
2/2/21 12:41,Parks Inquiry,PathMntnc,Parks Maintenance,Walking path under the bridge needs to be cleared just north of this location,2/2/21 12:43,1.0,50.4599742,-104.670042,AE WILSON PARK EAST,0.2715022872722736,6102 BRUNSKILL PL,50.45788,-104.66807,Trash/Debris,    BRUNSKILL PL,WEST,35
2/3/21 8:03,Parks Inquiry,No Subtype,Parks Maintenance,"SR has been created in response to an inquiry to Councillor Hawkins Ensure Councillor is copied on the response to the customerI was wondering who is responsible for clearing snow from the paved path that runs throughout the green space in Harbour Landing. It is wide enough for a truck with a plow to drive on. I know that in other areas of the city ;these paved paths are cleaned regularly.For example ,the path that is in the green space between University park and adjoining area, the area around the lake at Sandra Schmerler pool, and the paths around lakes in north Regina. I understand that Wascana Lake is a separate situation under WascanaAuthority. As a senior I worry about icy surfaces as do all my friends. We like to walk and have a lovely paths to do so, but the snow covering is not acceptable. If you could enlighten me if there is a plan for snow removal it would be appreciated. Thank you.",2/3/21 8:04,1.0,50.4059489,-104.652638,ELLIS PARK,0.2434127752598702,4740 HARBOUR LANDING DR,50.40376000000001,-104.65268,Snow removal,4578   HARBOUR LANDING DR,SOUTH,11
2/3/21 8:04,Parks Inquiry,No Subtype,Parks Maintenance,"SR has been created in response to an inquiry to Councillor Shanon Zachidniak Ensure Councillor is copied on the response to the customer Hi there, Can you please submit a Service Request for the email below and keep me in the loop regarding the responses? Thanks, Shanon Shanon Zachidniak Ward 8 City Councillor ________________________________________________________________________________ -----Original Message----- From: Ivan Donda Sent: Thursday, January 21, 2021 9:36 AM To: Shanon Zachidniak Subject: [External email] Walking path Good Morning Shanon My name is Ivan Donda and my wife's name is Shirley we live at 6308 8Th. Ave. for the past 20 years. We use the path in our area daily and really love it. It just disappoints us that the city of Regina decides to run this Great city of ours like it is a small town. Why is it that they can?t use proper equipment to maintain the path. Like clean the path underneath the bridges so that you don?t have a single path to walk on a possible twist an ankle. Do a better job on snow removal, and even through some sand down on the icye spots. This morning I should have put my skates on instead of winter boots. There have been times when we have seen the city on the path cleaning snow when it did not need it, and times like now when it does need it and they have not been out all week. A better job would be much appreciated . This path is used by quite a few people fail and we would like to see our tax dollars used better. Also the parking lot at Rick Hanson play are could use some attention snow wise. A lot of people drive to the path and it also very icy with ruts and lack of snow removal. One other item not relating to snow removal is it sure would be nice to have the garbage's emptied on a regular bases. or maybe checked. There are some of then close to over flowing with bags of dog poo and other garbage, Thank you very much. Ivan and Shirley Donda",2/3/21 8:08,1.0,50.45788,-104.66807,AE WILSON PARK EAST,0.0,6102 BRUNSKILL PL,50.45788,-104.66807, 306-543-8774Poor,6102   BRUNSKILL PL,WEST,-1
2/3/21 14:41,Parks Inquiry,PathMntnc,Parks Maintenance,Caller states the walkway beside his home going into the rink needs to be plowed.,2/3/21 14:45,1.0,50.489509,-104.6104764,MJ COLDWELL PARK,0.1074207566829337,115 FAIRVIEW RD,50.49045,-104.61082,Walkway needs to be plowed.,112   ELMVIEW RD,NORTH,88
2/3/21 14:42,Parks Inquiry,OutdrRink,Parks Maintenance,"Caller states that there is a ramp of solid ice on the south side of the inside of the board, caller would like to know if we can shave this down or if we can spray paint it to make people aware. Please inspect.",2/3/21 14:45,1.0,50.4477111,-104.6367296,LESLIE PARK  LAWN BOWLING PARK,7.900874738066842e-13,3820 VICTORIA AVE,50.44771110000001,-104.6367296,Ice rink,3820   VICTORIA AVE,CENTRAL,29
2/3/21 16:35,Parks Inquiry,ParksMnt,Parks Maintenance,"In Kinsman Park South, There is white pickup truck with and Sled Dogs and they are running the dogs in this area beside ski trails. The park is getting cut up but they also have a small fire going out there within a fire pit. They dogs are out on a chain line line right now. They showed up this morning. Please investigate",2/3/21 16:46,1.0,50.42346,-104.632083,KINSMEN PARK SOUTH,0.0,3310 LAKEVIEW AVE,50.42346,-104.632083,"sled dogs, fire",3310   LAKEVIEW AVE,SOUTH,75
2/4/21 14:07,Parks Inquiry,PlayEquMnt,Parks Maintenance,ebatters@regina.caCrosbie Park - overhead shade sail at the playground has come undone in one corner and requires re-attachment.,2/4/21 14:12,1.0,50.42756,-104.5102,CROSBIE PARK,0.0,3201 CROSBIE CRES,50.42756,-104.5102," playground, shade",3201   CROSBIE CRES,EAST,52
2/4/21 15:00,Parks Inquiry,PathMntnc,Parks Maintenance,Send a City of Regina Supervisor who looks after the park snow removal on arens road and parkland in the east end. Especially on Parkland Road. On the Park side. The. Sidewalk!!!!!,2/4/21 15:04,1.0,50.4389316,-104.5369876,PARKLAND PARK,0.0,3210 E PARKLAND DR,50.4389316,-104.5369876,"snow removal, sidewalks",3210 E PARKLAND DR,EAST,11
2/4/21 15:38,Parks Inquiry,PrkGrbEmpt,Parks Maintenance,Caller states garbage bins over flowing.,2/4/21 15:40,1.0,50.4622608,-104.5334863,HENRY BRAUN PARK,0.0,951 MIDDLETON CRES,50.4622608,-104.5334863,"garbage, bins",951   MIDDLETON CRES,EAST,86
2/8/21 15:03,Parks Inquiry,ParksMnt,Parks Maintenance,"SR has been created in response to an inquiry to Councillor Shanon Zachidniak Response not requested from resident.Councillor has been notified that a response is not required. Departments may contact resident at their own discretion.Hi, I have been following this org for a while and wished Regina was involved in terms of green space, bike paths etc . I am sure you are aware, but here is beginning of latest e-mail. 8 80 Cities takes part in a new Health Communities Initiative 8 80 Cities is excited to be teaming up with Community Foundations of Canada and other partners to fund projects through the Healthy Communities Initiative. Register to join Community Foundations of Canada on February 9th, 2021 at 1PM EST for a special announcement and panel event focused on transforming public spaces to respond to COVID-19. This event is an opportunity to learn more about Initiative, a new $31 million investment from the Government of Canada to support communities as they adapt public spaces for the new realities of the pandemic.",2/8/21 15:05,1.0,50.4478512,-104.6487819,MCNAB PARK,0.1904080130156921,4802 11TH AVE,50.4491616,-104.6470508,Lack of action/inaction,115   EMPRESS DR,WEST,70
2/14/21 23:44,Parks Inquiry,PathMntnc,Parks Maintenance,RPS called - there was a vehicle accident that took down the post at the entrance of St Thomas Park on Tyvan Ave - Police File #RA21011380,2/14/21 23:47,1.0,50.443612,-104.574855,ST THOMAS PARK,1.5801749476133684e-12,700 E TYVAN AVE,50.44361199999999,-104.574855,Car accident,700 E TYVAN AVE,CENTRAL,18
2/16/21 10:01,Parks Inquiry,No Subtype,Parks Maintenance,"As I was driving along Courtney St, north of Mapleford Gate, I noticed rabbits are chewing on the city planted trees.... cuz the snow is so high and they can now chew above the white protective wrap that is around the trees. Not sure what can be done other than someone putting more tree wrap around the trees to protect them. Just thought I?d mention it. Below is a photo. Rabbit in photo is now able to chew high up onto the trees.*see photo",2/16/21 10:04,1.0,50.4941761,-104.686848,HAYWORTH CRESCENT PARK,0.5626273839831281,750 RINK AVE,50.4905199,-104.68135,Rabbits chewing on,    COURTNEY ST,WEST,69
2/16/21 10:07,Parks Inquiry,PathMntnc,Parks Maintenance,SR has been created in response to an inquiry from Councillor MancinelliEnsure Councillor Mancinelli is copied on the response to the customer Usually the city does a great job of clearing the pathways of snow. However I haven't see the Pathways in our are cleaned for the past 10 days. We have received a lot of snow but the wind has blown the snow into drifts on the paths running north to south. It is a problem to walk through some of these areas. Is there a reason the pathways have not been cleaned?,2/16/21 10:14,1.0,50.473418,-104.6847407,HANSEN DRIVE PARK,0.3522685053871668,542 HANSEN DR,50.4702567,-104.6850649,Snow drifts,34   RENDEK CRES,WEST,47
2/16/21 13:30,Parks Inquiry,PathMntnc,Parks Maintenance,WestHill Park please clear pathways and empty garbage near north entrance by bus stop.,2/16/21 13:32,1.0,50.48008,-104.69908,WESTHILL PARK,0.0,8103 SHERWOOD DR,50.48008,-104.69908,"pathways, garbage",8103   SHERWOOD DR,WEST,38
2/16/21 14:49,Parks Inquiry,PathMntnc,Parks Maintenance,Resident has concerns there has been a snow plow and truck in JUNIPER PARK all day - the paths are already cleared and there is not that much snow in the area,2/16/21 14:51,1.0,50.4955673,-104.6454386,JUNIPER PARK,0.0,1000 STOCKTON ST,50.4955673,-104.6454386,".""Snow removal",1000 N STOCKTON ST,WEST,11
2/17/21 8:21,Parks Inquiry,No Subtype,Parks Maintenance,"Kudos to the crew keeping the walking path clear of snow in Tansley Park, Kensington Greens, please pass this along to the crew!",2/17/21 8:23,1.0,50.4994115,-104.6117475,TANSLEY PARK,0.0,2111 NORMAN MACKENZIE RD,50.4994115,-104.6117475,Thank you!,2111   NORMAN MACKENZIE RD,NORTH,-1
2/17/21 9:11,Parks Inquiry,ParksMnt,Parks Maintenance,Caller states the gate lock is broken at the main gate at the entrance to the large dog park. Please attend.,2/17/21 9:13,1.0,50.4672738,-104.5959123,EASTVIEW PARK,0.5206251146419768,945 BRODER ST,50.46427,-104.59027,Gate lock broken,750 N WINNIPEG ST,CENTRAL,24
2/17/21 10:28,Parks Inquiry,ParksMnt,Parks Maintenance,The gates at the park need to shoveled around because there is too much snow that is not allowing the gates to close. Please look into.,2/17/21 10:30,1.0,50.4446468,-104.6516098,CATHY LAURITSEN MEMORIAL OFFLEASH DOG PARK,0.0,2110 FORGET ST,50.4446468,-104.6516098,"snow, gates",2110   FORGET ST,CENTRAL,24
2/17/21 10:43,Parks Inquiry,PathMntnc,Parks Maintenance,WestHill Park path ways need to be cleared.,2/17/21 10:46,1.0,50.48008,-104.69908,WESTHILL PARK,0.0,8103 SHERWOOD DR,50.48008,-104.69908,Pathways not clear,8103   SHERWOOD DR,WEST,38
2/17/21 10:43,Parks Inquiry,PathMntnc,Parks Maintenance,Venture Park &nbsp;path ways need to be cleared.,2/17/21 10:47,1.0,50.47819,-104.69215,VENTURE PARK,0.0,7907 VENTURE RD,50.47819,-104.69215,Visitor safety.,7907   VENTURE RD,WEST,122
2/17/21 12:50,Parks Inquiry,OutdrRink,Parks Maintenance,Caller is requesting we come out to open the sack. As kids playing on rink right now and its cold.,2/17/21 12:53,1.0,50.4783168,-104.696077,VENTURE PARK,0.2782368291890654,7907 VENTURE RD,50.47819,-104.69215,Complaint is about:access,120 N DOIRON RD,WEST,1
2/17/21 12:56,Parks Inquiry,PathMntnc,Parks Maintenance,2048662 Caller states the walking path is now 4ft high and pedestrians are having trouble walking on the path.,2/17/21 12:58,1.0,50.4599742,-104.670042,AE WILSON PARK EAST,0.2715022872722736,6102 BRUNSKILL PL,50.45788,-104.66807,It is difficult to walk on the path,    BRUNSKILL PL,WEST,-1
2/17/21 14:51,Parks Inquiry,No Subtype,Parks Maintenance,Great job clearing all the snow @ Juniper Park!! Appreciated!!,2/17/21 14:52,1.0,50.4955673,-104.6454386,JUNIPER PARK,0.0,1000 STOCKTON ST,50.4955673,-104.6454386,Snow removal,1000 N STOCKTON ST,WEST,11
2/18/21 10:35,Parks Inquiry,PathMntnc,Parks Maintenance,Caller wanting to recognize the good work done at this park clearing pathways!,2/18/21 10:38,1.0,50.47819,-104.69215,VENTURE PARK,0.0,7907 VENTURE RD,50.47819,-104.69215,"gratitude, upkeep",7907   VENTURE RD,WEST,131
2/18/21 11:18,Parks Inquiry,PathMntnc,Parks Maintenance,resident is requesting we sand the walking paths of Selinger Park and Westminster Park they are glare ice - thanks,2/18/21 11:24,1.0,50.4218226,-104.5566431,SELINGER PARK,0.3978267611299655,3674 SELINGER CRES,50.41914999999999,-104.55291,"Liability,Ice",1803 E ASSINIBOINE AVE,EAST,78
2/18/21 11:55,Parks Inquiry,PathMntnc,Parks Maintenance,Prev SR 2046983 Jan 25th 2021There is a pathway that hooks up with the wider one that needs to be cleared - 4 foot wide path starts at 3332 &amp; goes to 3338 ant then heads south to hook up up the main pathway Neighbours with snowblowers have been clearing the pathway between the houses - 3332 &amp; 3330 Tanager CresLog note stated:We normally don't remove the snow from that path but we will have a look if we are able to do that! Markn Wosik D4Please contact resident via phone not email he would like to know if/when this is going to be done,2/18/21 11:58,1.0,50.4534954,-104.5365626,EASTGATE PARK,0.403520492219777,3410 E EASTGATE DR,50.4516681,-104.5316384,.snow removal,3332 E TANAGER CRES,EAST,11
2/18/21 11:55,Parks Inquiry,PathMntnc,Parks Maintenance,Prev SR 2046983 Jan 25th 2021There is a pathway that hooks up with the wider one that needs to be cleared - 4 foot wide path starts at 3332 &amp; goes to 3338 ant then heads south to hook up up the main pathway Neighbours with snowblowers have been clearing the pathway between the houses - 3332 &amp; 3330 Tanager CresLog note stated:We normally don't remove the snow from that path but we will have a look if we are able to do that! Markn Wosik D4Please contact resident via phone not email he would like to know if/when this is going to be done,2/18/21 11:58,1.0,50.4534954,-104.5365626,EASTGATE PARK,0.403520492219777,3502 E EASTGATE DR,50.4516681,-104.5316384,"Too much snow, not enough staff",3332 E TANAGER CRES,EAST,144
2/18/21 13:06,Parks Inquiry,OutdrRink,Parks Maintenance,Caller would like to know if we can clear the ice at Judge Bryant school. Thanks,2/18/21 13:08,1.0,50.4554516,-104.5435246,TURNER PARK,0.2505645238356638,130 BENTLEY DR,50.45386,-104.54603,"ice, safety",2626 E DEWDNEY AVE,EAST,82
2/19/21 11:44,Parks Inquiry,ParksMnt,Parks Maintenance,Caller is wanting to know if we are going to be doing work in this park this summer as there are people clearing snow in the greenspace which seems like they are preparing for work to be done behind this residence. Please call to discuss thanks.,2/19/21 11:46,1.0,50.4145334,-104.6048432,MUNROE PARK,0.0530837437956136,31 GARDINER AVE,50.4143159,-104.6055101,Work being done in park.,134   MUNROE PL,SOUTH,27
2/19/21 16:18,Parks Inquiry,ParksMnt,Parks Maintenance,"Subject: Garbage cans - park by St. FrancisShe was speaking with a resident ? Frank Focesata (sp?) ? who lives on Mikkelson Drive.He has complained to the city about the lack of garbage cans in the park by St. Francis. There are normally 4 during the spring/summer season and there is justone right now. He is claiming that one is not sufficient but we have told him that we are not putting out more than one.&nbsp;Could someone please call Frank at 306-543-5958 to resolve his concern. If you could please send me an email to let me know what the resolution was so that I can doa summary email to Councillor Zachidniak regarding all of the concerns she left with me today, that would be very much appreciated.Thank you!&nbsp;Pat HanleyExecutive Assistant",2/19/21 16:23,1.0,50.46472,-104.66765,ST FRANCIS PARK,0.0,6015 MIKKELSON DR,50.46472,-104.66765, Lack of garbage cans,6015   MIKKELSON DR,WEST,65
2/19/21 16:23,Parks Inquiry,ParksMnt,Parks Maintenance,"Subject: Dempsey Avenue - wind breakhere is another one for you. The resident that lives at 70 Dempsey Avenue backs onto Ruth M Buck Park. In 2017, the horticulture group came and trimmed the wind break of trees in the park. The resident claims that we decimated them. Nowthere is no windbreak and they are having issues with the snow drifting against the fence and into the yard. I believe that someone in your area has spokenwith Roxanne (306-545-7689) but she is not happy with the response and has escalated this to the Councillor.&nbsp;Pat HanleyExecutive Assistant",2/19/21 16:27,1.0,50.47779,-104.67287,RUTH BUCK PARK,0.0,6208 SHERWOOD DR,50.47779,-104.67287, - Councillor26th WardCity of Prince,6208   SHERWOOD DR,WEST,-1
2/22/21 1:39,Parks Inquiry,ParksMnt,Parks Maintenance,"I am wondering how to reserve Wascana View Park for my wedding on June 19,2021. Of course consideratinf COVID 19 restrictions.",2/22/21 1:41,1.0,50.4203,-104.53918,WASCANA VIEW PARK,0.0,3025 WASCANA CIRCLE,50.4203,-104.53918,Wedding planning.,3025   WASCANA CIR,EAST,30
2/22/21 2:12,Parks Inquiry,PathMntnc,Parks Maintenance,Rochdale lake walking path needs to be cleared. North west end in dangerous to walkers.Walking direction should be stated as clockwise or counter clockwise during pandemic to avoid conflict.,2/22/21 2:16,1.0,50.49651,-104.67661,ROCHDALE PARK,0.0,6829 CUNNINGHAM DR,50.49651,-104.67661,DirectionClearing,6829   CUNNINGHAM DR,WEST,-1
2/22/21 9:33,Parks Inquiry,PathMntnc,Parks Maintenance,Resident requesting the pathway at this park be sanded. Please look into.,2/22/21 9:38,1.0,50.4410061,-104.5584062,GARDINER PARK EXTENSION,0.0,1320 E TRUESDALE DR,50.4410061,-104.5584062,"footing, traction",1320 E TRUESDALE DR,EAST,76
2/22/21 11:14,Parks Inquiry,ParksMnt,Parks Maintenance,"&nbsp;Green Meadow Park is a very large park in the Greens with a playground, grassy open areas and pond. At the moment, residents treat this park as an off leash dog park. My children, by the end of summer were nervous to ride their bikesor scooters along the path anymore, as they had been repeatedly approached by dogs. Owners are never far, but can't run as fast as their animals, so there is a few minutes of panic for children. Can you pls paint a symbol for dogs on leash on the paved openingsof this park in the spring, and send patrollers on occasion to ensure its enforcement? We saw these symbols in the Creeks parks and it seemed effective. We bought here last summer so our children had a safe area to hang out with their new friends, and we wouldnot have purchased here had we known the amount of dogs let free to run and play catch.&nbsp; Location Green Meadow Park, running along Green Apple Drive and backing houses on Green Water Drive, Green Brook lane, etc.",2/22/21 11:15,1.0,50.42271,-104.52028,GREEN MEADOW PARK,0.0,3598 GREEN BANK RD,50.42271,-104.52028,lack of enforcement of leash laws,3598   GREEN BANK RD,EAST,75
2/22/21 11:57,Parks Inquiry,PathMntnc,Parks Maintenance,SR has been created in response to an inquiry to Councillor Lori Bresciani and Mayor.Ensure Councillor and mayor@regina.ca are copied on the response to the customer.Requesting the city finish paving the path at Green Meadow Park. This park was very busy this summer and traffic flow is limited as a large section of this park path remains unpaved and gets very muddy. Not sure why this project was abandonedas there is a massive path system that is paved east of the commercial area on chuka extending past St Elizabeth school and beyond! Houses don't even back the area yet! Pls finish what was started in 2012 as Green Meadow Park housing is 100% developed nowand very busy!,2/22/21 12:00,1.0,50.42271,-104.52028,GREEN MEADOW PARK,0.0,3598 GREEN BANK RD,50.42271,-104.52028,unfinished park path,3598   GREEN BANK RD,EAST,-1
2/22/21 13:52,Parks Inquiry,ParksMnt,Parks Maintenance,resident is reporting the gates are not closing properly at this dog park so the dogs are getting out and unable to enter the area please attend,2/22/21 13:54,1.0,50.46719,-104.55757,CANNON STREET PARK,0.7958297069171659,311 CANNON ST,50.46131,-104.55116, as soon as possibleDogs escaping.,624   SOLOMON CRES,EAST,75
2/22/21 14:13,Parks Inquiry,ParksMnt,Parks Maintenance,There is a lot of Dog Feces in the park at the above intersection about 200 feet once you are in the park He states there are no signs up to clean up and dogs must be on leash. It just says Welocme. Please investigate as this park is beautiful. Please investigate and clean up.,2/22/21 14:21,1.0,50.4413677,-104.5792963,ST THOMAS PARK,0.4014895535212925,700 E TYVAN AVE,50.44361199999999,-104.574855,"dog feces, signs",    FRANCIS ST,CENTRAL,53
2/23/21 8:46,Parks Inquiry,ParksMnt,Parks Maintenance,In Realtors Park there is so much dog feces in the park it needs to be cleaned up. No signs are up in the park about cleaning up after your dog. Please investigate as this is disgusting. Resident states it is awful and is through the whole park and to the soccer field,2/23/21 9:07,1.0,50.40979,-104.63118,REALTORS PARK,0.0,4310 MONTAGUE ST,50.40979,-104.63118,Dog feces,4310   MONTAGUE ST,SOUTH,53
2/23/21 14:14,Parks Inquiry,PathMntnc,Parks Maintenance,"Bike path beside his house was being cleared yesterday and the machine used blew the snow over his new trucks and driveway. It was quite the mess and it took him hours to clean this up. It is all piled up the fence, garage door. He would like to say please when clearing these paths lower the chute where the snow comes out so it is not spraying everywhere. He needs to wash the vehicle and wont know if there is damage to the paint from the sand and debris coming through the chute. The snow must have flew 30 feet to hit his property it was so hard.",2/23/21 14:19,1.0,50.4888771,-104.6872851,CHURCHBLACKMAN PARK,0.3012376042228881,240 CHURCH DR,50.48626789999999,-104.6861395, Use of heavy machinery/Negligent,7323   BEAMISH DR,WEST,67
2/23/21 23:41,Parks Inquiry,VehcleAcce,Parks Maintenance,Applicant Name:Glen FaubertEmail:gfi@sasktel.netOwner Name:cornerstone heights condo corporationAddress:4891 Trinity lanePhone Number:306-533-9200Company Name:GFI ContractingAddress:3236 Mountbatten Cres.Phone:3065202866Access Location and Address:access to park on corner of trinity lane and tudor wayDescribe the project and/or type of equipment being used and why the access is required. Explain any special conditions or requests:to access north side of 4891 trinity lane with a man lift truck so as to repair soffit damaged from recent windsAttach plans or maps showing exact location and proposed access route.Project Start Date:2021-02-26Project End Date:2021-03-05I hereby declare that I have read and understand the Terms and Conditions and agree to comply.Yes,2/23/21 23:43,1.0,50.4257368,-104.5507624,PHILLIP PARK,0.3660647576667853,3256 MARGARET RD,50.4266099,-104.5457799,The access to the park is required in,3236   MOUNTBATTEN CRES,EAST,43
2/24/21 9:43,Parks Inquiry,PathMntnc,Parks Maintenance,Caller states the walking path in Ellis park is iced over. She states children are walking through to get to school. Please attend.,2/24/21 9:54,1.0,50.40376,-104.65268,ELLIS PARK,1.5801749476133684e-12,4740 HARBOUR LANDING DR,50.40376000000001,-104.65268,Ice,4740   HARBOUR LANDING DR,SOUTH,82
2/25/21 9:03,Parks Inquiry,OutdrRink,Parks Maintenance,Can you please flood Dr. A. E. Perry outdoor Rink?,2/25/21 9:06,1.0,50.402433,-104.6318816,DR AE PERRY PARK,0.0596758168969169,40 COWIE RD,50.4019,-104.63198,lack of maintenance,93   LINCOLN DR,SOUTH,5
2/25/21 23:46,Parks Inquiry,ParksMnt,Parks Maintenance,FOLLOW-UP ON SAND AT SOLOMON CRES DOG PARK REQUEST&nbsp;Thank you for the sand that was laid down inside the fence at the dog park but the slope leading up to the gates upon arrival has not been sanded and is very icy. This is the part between the dumpster and the entry gate. There is gravel there but right nowit is packed snow and ice and very slippery. It is actually that slope where the woman fell and the ambulance had to be called.,2/25/21 23:49,1.0,50.46719,-104.55757,CANNON STREET PARK,0.7958297069171659,311 CANNON ST,50.46131,-104.55116,"&nbsp;Ice, Slippery",624   SOLOMON CRES,EAST,82
2/26/21 9:46,Parks Inquiry,ParksMnt,Parks Maintenance,"resident lives at 12 Crestview Bay, they are moving and need to get their trailer out through there back gate, too much snow piled behind his back fence in MJ coldwell park would need assistance removing this snow - please contact resident to advise what can be done here",2/26/21 9:50,1.0,50.49045,-104.61082,MJ COLDWELL PARK,0.0,115 FAIRVIEW RD,50.49045,-104.61082,Snow removal,115   FAIRVIEW RD,NORTH,11
2/26/21 11:14,Parks Inquiry,OutdrRink,Parks Maintenance,resident is wanting someone to give her a call regarding that state of the rink at mount pleasant she is wondering if it is solid enough to skate on today,2/26/21 11:15,1.0,50.4672738,-104.5959123,EASTVIEW PARK,0.5206251146419768,945 BRODER ST,50.46427,-104.59027,Rink conditions,750 N WINNIPEG ST,CENTRAL,29
2/26/21 15:06,Parks Inquiry,VehcleAcce,Parks Maintenance,"Applicant Name: Joely Hoeving and Troy Edwards Email: joelyhoeving@sasktel.netOwner Name: Joely Hoeving and Troy Edwards Address: 2435 Broderick Bay, Regina, SK, S4V 1K6 Phone Number: 306-586-2827 Company Name: Ellis Pools and Construction Ltd Address: 1135 Pettigrew Ave E, Regina, SK S4N 5W1 Phone: 306-525-7665 Access Location and Address: Prince of Wales Pathway in Windsor Park East - 2435 Broderick BayDescribe the project and/or type of equipment being used and why the access is required. Explain any special conditions or requests: We are building a pool in June 2021 with Ellis Pools.&nbsp;We require access along our back fence which backs Prince of Wales Dr Pathway.&nbsp;Ellis pools will use equipment necessary to dig the pool hole and as well as bring pool equipment and supplies into the yard.Attach plans or maps showing exact location and proposed access route. 2435 Broderick from Surveyor.pdfProject Start Date: 2021/06/14 Project End Date: 2021/07/31 I hereby declare that I have read and understand the Terms and Conditions and agree to comply. Yes",2/26/21 15:25,1.0,50.4398825,-104.5320691,PARKLAND PARK,0.364019640544824,3210 E PARKLAND DR,50.4389316,-104.5369876,NoThe main issue in this complaint is,2435   BRODERICK BAY,EAST,1
3/1/21 3:17,Parks Inquiry,PlayEquMnt,Parks Maintenance,"The shade cover at playground ( Pirate Park) has been damaged since the big storm, it is partially torn off and flapping in the wind and causing a safety hazard.",3/1/21 3:20,1.0,50.42756,-104.5102,CROSBIE PARK,0.0,3201 CROSBIE CRES,50.42756,-104.5102,"Canopy, wind, hazard.",3201   CROSBIE CRES,EAST,-1
3/1/21 6:05,Parks Inquiry,ParksMnt,Parks Maintenance,Please bring a garbage can to Alport Park in Uplands. We have two at the east end of the park but none at the west end. More chances of dog walkers to use for their dog poo bags. Thank u,3/1/21 6:14,1.0,50.4960191,-104.6001761,ALPORT PARK,1.5801749476133684e-12,28 ALPORT CRES,50.49601910000001,-104.6001761,"Dogs, garbage",28   ALPORT CRES,NORTH,53
3/1/21 10:56,Parks Inquiry,ParksMnt,Parks Maintenance,Caller is wanting to know if we can put garbage cans through out the conservation park as people are leaving there bags of dog poop all over.,3/1/21 12:16,1.0,50.41331,-104.53653,WASCANA VIEW PARK,0.7996097007387224,3025 WASCANA CIRCLE,50.4203,-104.53918,"littering, poop",12001   WASCANA CIR,EAST,4
3/1/21 16:04,Parks Inquiry,ParksMnt,Parks Maintenance,Chain Link fence on the one ball diamond is coming lose. It is loose enough that the kids are holding it open and kids are running through it. It is dangerous and needs repair. It is the north east ball diamond . Please repair asap as this poses a danger for the kids at the school,3/1/21 16:11,1.0,50.4760622,-104.6801093,MURPHY PARK,0.2550769003688944,15 MURPHY CRES,50.47813,-104.68167," next to it.dangerous, needs",140   GREENWOOD CRES,WEST,2
3/1/21 16:23,Parks Inquiry,ParksMnt,Parks Maintenance,pile of branches left on the city parcel behind 121 Douglas ave would like us to attend to get those picked up,3/1/21 16:25,1.0,50.4324797,-104.5810891,DOUGLAS PARK,0.4193269601246853,3025 MCDONALD ST,50.42884,-104.57954,Picking up branches,1   KERR PL,EAST,36
3/1/21 22:32,Parks Inquiry,PathMntnc,Parks Maintenance,Mt Pleasant path way. Please apply sand or/ice melt on it as it?s very slippery with lots of ice on it. Thank u. I fell twice today on it .,3/1/21 22:35,1.0,50.4672738,-104.5959123,EASTVIEW PARK,0.5206251146419768,945 BRODER ST,50.46427,-104.59027,Ice,750 N WINNIPEG ST,CENTRAL,82
3/2/21 14:51,Parks Inquiry,ParksMnt,Parks Maintenance,"Service Regina will be responding to the resident with a coordinated response on behalf of departments as this is a multi-SR request. Please email SRadmin@regina.ca with your response including the SR number in the subject line within 1 business day.SR 2053885 has been forwarded to Parks Maintenance for responseSR 2053886 has been forwarded to Winter Maintenance for responseI totally support your efforts to reduce inefficient spending on excessive and wasteful city operations.However just when I thought I'd seen it all, to my disbelief I see the city hauling snow out the parks. The two parks I witnessed were Lakeridge and Teresa Stephenson's but I'm sure there are others.Why?Secondly if your looking to save 3 to 5 million dollars annually have an independent review conducted on the excessive application of Roadways Winter Maintenance Program(WMP). Just one recent example was the massive hauling of snow off the entirety of McCarthy Blvd. Firstly this was totally in violation of the guidelines set out in the WMP and secondly they did it days before double digit temperatures are forecast, that would have melted the majority of the snow. For years Roadways have relied on the trust and na?vet? of council to engage in the excessive application of the WMP. It's become a sacred cow, but if your really interested in saving millions per year have an independent review done of their operations.",3/2/21 15:00,1.0,50.5047495,-104.6738393,HIRD PARK,0.0629727717882155,6530 HIRD CRES,50.50418440000001,-104.6737807,1. parks 2. Roadways Winter,1615 N HIRD CRT,WEST,-1
3/3/21 9:25,Parks Inquiry,OutdrRink,Parks Maintenance,Huge thanks to facilities crew who maintained the ice at the Mt Pleasant speed skating oval. Our skaters were able to get lots of long track speed skating training in this winter. #FastIsFun,3/3/21 10:08,1.0,50.4672738,-104.5959123,EASTVIEW PARK,0.5206251146419768,945 BRODER ST,50.46427,-104.59027,Ice maintenance,750 N WINNIPEG ST,CENTRAL,82
3/3/21 10:14,Parks Inquiry,ParksDrai,Parks Maintenance,"per sr# 2018092Caller is inquiring regarding having another drain or trench put in the park, states it is slopping and when it rains or snow melts, there is lots of water, flooding their yards.&nbsp;",3/3/21 10:18,1.0,50.4900864,-104.6031018,ELMVIEW EAST PARK,0.1176714022284461,202 ELMVIEW RD,50.48987,-104.60473,"drainage, flooding",194   LLOYD CRES,NORTH,98
3/5/21 8:04,Parks Inquiry,IrrigMtnc,Parks Maintenance,Can I get a Locate on the below location please? Please call or email to let Dispatch know if this work area is clear or needs to be located. Please reference ticket number 10097531430 4th AveType of work: Poles/Holes ? FacilitiesContact: Brett @ 306-530-3685,3/5/21 8:12,1.0,50.4631727,-104.6009024,ARBORETUM PARK,0.0,1430 4TH AVE,50.4631727,-104.6009024,Location,1430   4TH AVE,CENTRAL,-1
3/8/21 8:39,Parks Inquiry,PathMntnc,Parks Maintenance,Groome Park behind this address has a pound forming due to snow melt. It freezes and kids are playing on it. Caller worried about thin ice and water trapped under it. he is hoping we can put warning signs.,3/8/21 8:40,1.0,50.4093231,-104.6516026,JIM CAIRNS PARK,0.3234308559225473,4712 GLASS ST,50.41200019999999,-104.6498179,Thin ice,4977   WRIGHT RD,SOUTH,82
3/8/21 16:05,Parks Inquiry,ParksMnt,Parks Maintenance,Request to have the parked cleaned as the park cleaned. Resident states there is dog feces all over,3/8/21 16:10,1.0,50.49992,-104.64816,MEMORIAL CROSS PARK,0.4801003513507155,4527 ELLARD WAY,50.50409,-104.6464, the parkDog feces,4600   SHUMIATCHER CRES,WEST,53
3/8/21 16:39,Parks Inquiry,PathMntnc,Parks Maintenance,"SR has been created in response to an inquiry to Councillor Lori BrescianiEnsure Councillor is copied on the response to the customerPlease see email below. Please cc me on the response.Thank you Lori Bresciani Councillor Ward 4306-570-1995 From: Danielle Huberdeau [mailto:daniellehuberdeau@hotmail.com] Sent: March 5, 2021 5:55 PM To: Lori Bresciani Subject: [External email] Greens walking paths Hello Lori! I was just sending an email to ask why the walking paths in the Greens are not cleared and other neighborhoods like harbour landing are done on a regular basis ? I was wondering what can be done to get someone out to clear them?",3/8/21 16:44,1.0,50.4336153,-104.5563017,UNIVERSITY PARK,0.4000503416205875,25 MICHENER DR,50.4311,-104.56034, They are so icy that it has become unsafe for,    ARCOLA AVE,EAST,82
3/9/21 15:25,Parks Inquiry,PrkGrbEmpt,Parks Maintenance,The garbage cans in Henry Braun park need to be emptied. Please look into.,3/9/21 15:27,1.0,50.4622608,-104.5334863,HENRY BRAUN PARK,0.0,951 MIDDLETON CRES,50.4622608,-104.5334863,Garbage can,951   MIDDLETON CRES,EAST,65
3/9/21 15:54,Parks Inquiry,PlayEquMnt,Parks Maintenance,Caller states there is a piece of railing that broke off the play structure in Bothwell park and and now there is a sharp piece sticking out. The piece that broke is just under the structure. Please inspect and fix. Thanks,3/9/21 15:56,1.0,50.4927599,-104.59814,BOTHWELL PARK,0.0,94 BOTHWELL CRES,50.4927599,-104.59814,Called reports a broken railing on a,94   BOTHWELL CRES,NORTH,21
3/10/21 12:10,Parks Inquiry,PathMntnc,Parks Maintenance,Richmond/Selinger Park the walking path is covered in ice and snow. Please clearCaller @ (306)535-9888,3/10/21 12:12,1.0,50.4251351,-104.556869,WESTMINSTER PARK,0.1778615044522617,3304 WESTMINSTER RD,50.42672,-104.55653,Ice and snow,1940 E ANGLEY CRT,EAST,82
3/11/21 10:11,Parks Inquiry,ParksDrai,Parks Maintenance,"Caller states that there is a lot of water that is pooling on this walking bath between houses, callers states that the sidewalk is to low for the puddle to even reach the catch basin. Please inspect and see if we can do anything.",3/11/21 10:13,1.0,50.4538423,-104.548296,TURNER PARK,0.1604397879663047,130 BENTLEY DR,50.45386,-104.54603,"drainage, flooding",1533   FLEET ST,EAST,98
3/11/21 14:32,Parks Inquiry,ParksMnt,Parks Maintenance,"&nbsp;Hello, my wife and I just finished a neighbourhood walk around Gardiner Heights Windsor Park area and we saw far too many discarded face masks on the Mackenzie school street area and the walk8ng paths around the Schmirler Leisure Centre.I will be leading the charge in picking these up when it dries up a bit but I am hoping this is on the cities radar to address this huge issue. Our city is not a garbage dump but for many they must think it is. Please consider this issue when going about yourspring plans and consider me a partner in the work to address the issue.&nbsp;Thanks in advance.&nbsp;Dave &amp; Arlene Allen&nbsp;",3/11/21 14:34,1.0,50.4300797,-104.5417422,NEFF PARK,0.1182107666776132,2827 E NEFF RD,50.43103319999999,-104.5424802,"littering, public health",2903 E ENICK BAY,EAST,107
3/12/21 13:33,Parks Inquiry,ParksMnt,Parks Maintenance,"Arlington Park of Groome Avenue is seeing a huge influx of off-leash dogs. There is on average 10-15 dogs running at large in the park on any given day. There is dog feces everywhere and owners don't seem to care it isn't an off -leashpark. Maybe putting up some signage , or enforcement would be greatly appreciated. These dogs not only are damaging the park, but are damaging my fence by jumping up against it to harass my dogs that are in my yard. Thank YouLocation Arlington Park between Groome Ave and Thatcher Road , Regina",3/12/21 13:35,1.0,50.3996319,-104.6270165,ARLINGTON PARK,0.0,35 GROOME AVE,50.3996319,-104.6270165,Dogwalking,35   GROOME AVE,SOUTH,-1
3/12/21 16:24,Parks Inquiry,ParksMnt,Parks Maintenance,Caller states there is an alarm going off at this parks building - it says district 2 sub depot.,3/12/21 16:25,1.0,50.4373569,-104.5266449,PRINCE OF WALES PARK,0.0,3800 E CUMBERLAND RD,50.4373569,-104.5266449,The key issue in this complaint is the,3800 E CUMBERLAND RD,EAST,1
3/14/21 21:49,Parks Inquiry,ParksMnt,Parks Maintenance,"In Prairie View West along the walking path, one of the red benches has been vandalized. It's been removed from the cement pad and placed closer to the stream adjacent to the walking path. Location: Prairie View West, Walking Path, by where the beavers chewed down trees.",3/14/21 21:52,1.0,50.4792082,-104.6862449,PINES OF NORMANVIEW PARK,0.2305599514960631,1098 DOROTHY ST,50.47773,-104.68396,"Vandalism, Bench",222 N HODGINS CRES,WEST,9
3/15/21 8:37,Parks Inquiry,LitPubProp,Parks Maintenance,"SR has been created in response to an inquiry to MayorResponse not requested from resident. Mayor has been notified that a response is not required. Departments may contact resident at their own discretion.Message I'm ashamed to tell anyone I'm from Regina. It has turned into the garbage dump of the province and nobody seems to care. If you drive down the Lewvan from #1 Hwy and head north, try opening your eyes and viewing the City as a visitor - it's disgusting. Very few citizens care and even fewer businesses care. The City has a clean property bylaw that applies to businesses and residents, but doesn't seem to want to make the effort to enforce it. You could issue a ticket to the Schmirler Leisure Centre for the trash that gathers there.",3/15/21 8:41,1.0,50.423073,-104.5303802,WOODLAND GROVE PARK,0.128765415196774,3507 ARBOR GROVE DR,50.4241,-104.53122, Regularly. What a joke.L,3606   ARBOR GROVE DR,EAST,124
3/15/21 12:11,Parks Inquiry,ParksMnt,Parks Maintenance,Caller wants to add signs to pick up after dogs in Williston Park.,3/15/21 12:15,1.0,50.48162,-104.67851,WILLISTON PARK,0.0,30 WILLISTON DR,50.48162,-104.67851,"littering, pets",30   WILLISTON DR,WEST,4
3/15/21 21:05,Parks Inquiry,DeadAnPU,Parks Maintenance,There is a dead rabbit in the green space behind the fence at 5407 Universal Cres. Can the City pick it up? Thanks.,3/15/21 21:08,1.0,50.4034737,-104.6583038,SHOWLER PARK,0.1714883809895916,5303 UNIVERSAL CRES,50.4041826,-104.6561549,Animal carcass,5407   UNIVERSAL CRES,SOUTH,108
3/16/21 15:17,Parks Inquiry,PrkGrbEmpt,Parks Maintenance,Caller states the garbage cans in A E wilson park are over flowing.,3/16/21 15:18,1.0,50.4602177,-104.6752887,AE WILSON PARK WEST,0.0,1010 MCCARTHY BLVD,50.4602177,-104.6752887," garbage, overflowing",1010   MCCARTHY BLVD,WEST,110
3/17/21 11:58,Parks Inquiry,ParksMnt,Parks Maintenance,caller is reporting a lot of scattered broken branches in SW corner of parks kids are playing with them and would like to us attend and collect those,3/17/21 12:00,1.0,50.40475,-104.63041,GORDON PARK,0.0,3509 GORDON RD,50.40475,-104.63041," limbssafety,hazard",3509   GORDON RD,SOUTH,-1
3/17/21 12:17,Parks Inquiry,PlayEquMnt,Parks Maintenance,"Loriner Park needs some repairs. Children's small play apparatus has a broken out plexiglass window that could be potentially dangerous. Also, how can one lobby for at least one more bench. Lorimer Crescent/Donahue Avenue, Regina Children?s Park.",3/17/21 12:20,1.0,50.48129,-104.63828,LORIMER PARK,1.5801749476133684e-12,19 LORIMER CRES,50.48128999999999,-104.63828,"loitering, vandalism, safety,",19   LORIMER CRES,NORTH,9
3/17/21 14:21,Parks Inquiry,ParksMnt,Parks Maintenance,caller from saskpower accessed city of regina box located in park by 72 Donahue was unable to close box back up needs our assistance took lock with her concerned a kid might try to get in there please call back asap,3/17/21 14:28,1.0,50.48129,-104.63828,LORIMER PARK,1.5801749476133684e-12,19 LORIMER CRES,50.48128999999999,-104.63828,"Trespassing, Vandalism",19   LORIMER CRES,NORTH,84
3/17/21 14:55,Parks Inquiry,PrkGrbEmpt,Parks Maintenance,The garbage containers in the park need to be emptied. Please look into.,3/17/21 14:57,1.0,50.5010292,-104.6929625,KRAHN PARK,0.6933014505523296,7045 MAPLE RIDGE DR,50.50316,-104.68375,Littering,1321 N SILVERLEAF BLVD,WEST,4
3/19/21 11:15,Parks Inquiry,ParksMnt,Parks Maintenance,Someone chopped down a tree in Juniper park on Stockton Street Location You will see it right away if you park on the street next to Home Depot,3/19/21 11:17,1.0,50.4955673,-104.6454386,JUNIPER PARK,0.0,1000 STOCKTON ST,50.4955673,-104.6454386,The issue is vandalism.,1000 N STOCKTON ST,WEST,9
3/20/21 20:44,Parks Inquiry,PathMntnc,Parks Maintenance,I was out on the pathways in the northwest near the AE Wilson park. And i noticed that the laths are covered in gravel and sand. Did the city salt and sand the walking paths over the winter? And is there a schedule on when they get sweptclean? I had the unfortunate experience of falling off skateboard due to lack of traction to the pavement.&nbsp;Location Ae wilson park and city bike paths,3/20/21 20:47,1.0,50.45788,-104.66807,AE WILSON PARK EAST,0.0,6102 BRUNSKILL PL,50.45788,-104.66807,"gravel, sand",6102   BRUNSKILL PL,WEST,23
3/20/21 21:59,Parks Inquiry,ParksMnt,Parks Maintenance,Just a heads up that we took down the snow fence that was only half in the ground so that a child was not impaled while playing in the park. It is all rolled up and the steel posts are stacked up just inside the entrance to Bundon park.We collected all the metal ties as well so that nobody got injured. It would be great if the city came to pick it up.Location Bundon Park,3/20/21 22:01,1.0,50.47408,-104.69515,BUNDON PARK,0.0,7931 GORDON STASESON BLVD,50.47408,-104.69515,Incomplete Fence,7931   GORDON STASESON BLVD,WEST,12
3/20/21 23:33,Parks Inquiry,ParksMnt,Parks Maintenance,One of the posts flanking the entrance to the parking lot for AE Wilson park on Dorothy was knocked over.&nbsp;,3/20/21 23:35,1.0,50.4684164,-104.6826712,MABLE BROWN PARK,0.2308774246894547,225 MIKKELSON DR,50.4670849,-104.6801682," Safety, liability",    DOROTHY ST,WEST,78
3/21/21 0:06,Parks Inquiry,ParksMnt,Parks Maintenance,Hello! I was just wondering when the soccer nets will be up at Havilland Park in Harbour Landing! I'm not sure if this is the place to ask but I'll give it a shot! Thank you kindly!&nbsp;Location Harbor Landing&nbsp;,3/21/21 0:09,1.0,50.4145899,-104.65828,HAVILLAND PARK,0.0,5401 TUTOR WAY,50.4145899,-104.65828,Harbor Landing soccer nets.,5401   TUTOR WAY,SOUTH,57
3/21/21 2:26,Parks Inquiry,PrkGrbEmpt,Parks Maintenance,Need garbages emptied&nbsp; Location There is a bin in the walkway between Rowell and Hopkins that hasn?t been emptied in at least 3 weeks. There are bins along the path between Dalgliesh and Rink west of Athlone that need to be emptied too. Thank you.,3/21/21 2:31,1.0,50.4912531,-104.6654646,DRYBURGH PARK,0.3524127362154183,15 DRYBURGH CRES,50.49262,-104.66097,Garbage,    DALGLIESH DR,WEST,45
3/21/21 20:02,Parks Inquiry,ParksTrePr,Parks Maintenance,There is a pathway next to 76 Cardinal Crescent which leads to Daffodil park. Along that pathway there are many trees which have dead branches or have branches already broken and ready to fall off. Requesting the city tree departmentcome look and trim all these trees along the pathway. It is a danger to walkers as the path is very busy as well as a eye sore.&nbsp;Pathway next to 76 Cardinal Crescent,3/21/21 20:04,1.0,50.4050195,-104.6070029,DAFFODIL PARK,0.1113106254531859,2128 DUFFERIN RD,50.40402,-104.60709,.Tree branches,76   CARDINAL CRES,SOUTH,36
3/22/21 9:01,Parks Inquiry,ParksMnt,Parks Maintenance,"SR has been created in response to an inquiry to Mayor MastersResponse not requested from resident. Mayor has been notified that a response is not required. Departments may contact resident at their own discretion.hi there- I have a suggestion. If the city wants victoria park to be the heart of downtown- then it should be a garden. It is too bland as it is to be the heart of anything. It should have lots of colorful flowers and benches, fish pond with the fountain etc like the urban gardens in Europe or the butchart gardens in BC. thanks for your considerationCherese_r@hotmail.comCherese Reemaul",3/22/21 9:07,1.0,50.4480315,-104.6122811,VICTORIA PARK,0.0,2190 VICTORIA AVE,50.4480315,-104.6122811,",What is the key issue?",2190   VICTORIA AVE,CENTRAL,1
3/22/21 10:30,Parks Inquiry,ParksDrai,Parks Maintenance,This caller is stating that the back corner at this address has a low spot where water pools - could this be filled to make it level.&nbsp; There was work being done in the park and it has never been cleaned up properly.,3/22/21 10:34,1.0,50.4377881,-104.552487,GARDINER PARK,0.1055697824450231,424 UNIVERSITY PARK DR,50.4372573,-104.5537229,Parks and Maintenance,2127 E STYLES CRES,EAST,27
3/22/21 12:28,Parks Inquiry,LitPubProp,Parks Maintenance,The garbage beside the walking path at above address also has 4 boxes of garbage as well as loose garbage - please attend to remove,3/22/21 12:31,1.0,50.44086,-104.6210522,LEOPOLD CRESCENT PARK,0.4229923347196576,3110 18TH AVE,50.4385415,-104.6257875,"Garbage, clean-up.",    RAE ST,CENTRAL,99
3/22/21 15:16,Parks Inquiry,PrkGrbEmpt,Parks Maintenance,"Garbage can is full and overflowing beside play structure. Lakeridge park, south end by play structure. Closest street is Harrison Way and Whelan Dr.",3/22/21 15:18,1.0,50.50104,-104.65853,LAKERIDGE PARK,0.0,5560 LEIBEL CRES,50.50104,-104.65853,Garbage and litter,5560   LEIBEL CRES,WEST,93
3/22/21 15:59,Parks Inquiry,LitPubProp,Parks Maintenance,"Resident was building a rink on creek and now that it has melted all of the debris is left - there is a tarp, nets, firewood and a fire pit. This is on the side of the creek.",3/22/21 16:05,1.0,50.4738741,-104.6986363,BUNDON PARK,0.2477772372936526,7931 GORDON STASESON BLVD,50.47408,-104.69515,//Waste Management,8067   FAIRWAYS WEST DR,WEST,60
3/23/21 9:40,Parks Inquiry,PathMntnc,Parks Maintenance,@CityofRegina big thank you to city staff out early sweeping the bike paths. Really appreciate all the work to keep the paths in great shape,3/23/21 10:04,1.0,50.5054697,-104.671063,EWART PARK,0.2064314949847074,1564 N DEVONSHIRE DR,50.5037052,-104.6701556,"!""Littering",6247   HIRD CRES,WEST,4
3/23/21 10:54,Parks Inquiry,PlayEquMnt,Parks Maintenance,Caller would like to know if we can replace the basketball nets on the park here. Please inspect and fix thanks .,3/23/21 10:58,1.0,50.49487,-104.65797,LAKERIDGE SPORTS PARK,1.5801749476133684e-12,5451 ROCHDALE BLVD,50.49487000000001,-104.65797,Basketball nets,5451   ROCHDALE BLVD,WEST,57
3/24/21 8:57,Parks Inquiry,ParksMnt,Parks Maintenance,Please see attached for letter received for a past Councillor.,3/24/21 9:00,1.0,50.4764803,-104.6134716,IMPERIAL PARK,0.5195511340552847,305 ROSE ST,50.47402,-104.60723,Inappropriate sexual advances,2221   5TH AVE,NORTH,9
